[{"area": "Chicago / Illinois", "address": "330 N State Street", "state": "IL", "lng": -87.628091, "postal_code": "60610", "city": "Chicago", "reserve_url": "http://www.opentable.com/single.aspx?rid=7267", "image_url": "https://www.opentable.com/img/restimages/7267.jpg", "name": "10pin Bowling Lounge", "price": 4, "mobile_reserve_url": "http://mobile.opentable.com/opentable/?restId=7267", "id": 7267, "country": "US", "phone": "3126440300x", "lat": 41.888634}, {"area": "Chicago / Illinois", "address": "60 W Ontario St", "state": "IL", "lng": -87.63045, "postal_code": "60654", "city": "Chicago", "reserve_url": "http://www.opentable.com/single.aspx?rid=147604", "image_url": "https://www.opentable.com/img/restimages/147604.jpg", "name": "Chicago Chop House", "price": 4, "mobile_reserve_url": "http://mobile.opentable.com/opentable/?restId=147604", "id": 147604, "country": "US", "phone": "3127877100", "lat": 41.893491}, {"area": "Chicago / Illinois", "address": "2824 West Armitage Avenue", "state": "IL", "lng": -87.698281, "postal_code": "60647", "city": "Chicago", "reserve_url": "http://www.opentable.com/single.aspx?rid=149062", "image_url": "https://www.opentable.com/img/restimages/149062.jpg", "name": "Osteria Langhe", "price": 2, "mobile_reserve_url": "http://mobile.opentable.com/opentable/?restId=149062", "id": 149062, "country": "US", "phone": "7736611582x", "lat": 41.917688}, {"area": "Chicago / Illinois", "address": "633 North Saint Clair", "state": "IL", "lng": -87.622615, "postal_code": "60611", "city": "Chicago", "reserve_url": "http://www.opentable.com/single.aspx?rid=2053", "image_url": "https://www.opentable.com/img/restimages/2053.jpg", "name": "The Capital Grille - Chicago - Downtown", "price": 4, "mobile_reserve_url": "http://mobile.opentable.com/opentable/?restId=2053", "id": 2053, "country": "US", "phone": "3123379400x", "lat": 41.893591}, {"area": "Chicago / Illinois", "address": "875 N. Michigan Avenue", "state": "IL", "lng": -87.6241, "postal_code": "60611", "city": "Chicago", "reserve_url": "http://www.opentable.com/single.aspx?rid=3401", "image_url": "https://www.opentable.com/img/restimages/3401.jpg", "name": "Signature Room at the 95th", "price": 4, "mobile_reserve_url": "http://mobile.opentable.com/opentable/?restId=3401", "id": 3401, "country": "US", "phone": "3127879596x", "lat": 41.8987}, {"area": "Chicago / Illinois", "address": "2024 North Halsted St.", "state": "IL", "lng": -87.648811, "postal_code": "60614", "city": "Chicago", "reserve_url": "http://www.opentable.com/single.aspx?rid=1162", "image_url": "https://www.opentable.com/img/restimages/1162.jpg", "name": "Caf\u00e9 Ba-Ba-Reeba", "price": 2, "mobile_reserve_url": "http://mobile.opentable.com/opentable/?restId=1162", "id": 1162, "country": "US", "phone": "7739355000x", "lat": 41.918677}, {"area": "Chicago / Illinois", "address": "1147 W Grand Ave", "state": "IL", "lng": -87.656439, "postal_code": "60642", "city": "Chicago", "reserve_url": "http://www.opentable.com/single.aspx?rid=145783", "image_url": "https://www.opentable.com/img/restimages/145783.jpg", "name": "Gaud\u00ed Caf\u00e9", "price": 2, "mobile_reserve_url": "http://mobile.opentable.com/opentable/?restId=145783", "id": 145783, "country": "US", "phone": "3127339528x", "lat": 41.890772}, {"area": "Chicago / Illinois", "address": "3868 N Lincoln", "state": "IL", "lng": -87.677, "postal_code": "60613", "city": "Chicago", "reserve_url": "http://www.opentable.com/single.aspx?rid=5822", "image_url": "https://www.opentable.com/img/restimages/5822.jpg", "name": "Sola", "price": 2, "mobile_reserve_url": "http://mobile.opentable.com/opentable/?restId=5822", "id": 5822, "country": "US", "phone": "7733273868", "lat": 41.952}, {"area": "Chicago / Illinois", "address": "2656 W Lawrence Ave", "state": "IL", "lng": -87.695971, "postal_code": "60625", "city": "Chicago", "reserve_url": "http://www.opentable.com/single.aspx?rid=71881", "image_url": "https://www.opentable.com/img/restimages/71881.jpg", "name": "goosefoot", "price": 4, "mobile_reserve_url": "http://mobile.opentable.com/opentable/?restId=71881", "id": 71881, "country": "US", "phone": "7739427547x", "lat": 41.96858}, {"area": "Chicago / Illinois", "address": "2957 W. Diversey Ave", "state": "IL", "lng": -87.702288, "postal_code": "60647", "city": "Chicago", "reserve_url": "http://www.opentable.com/single.aspx?rid=150433", "image_url": "https://www.opentable.com/img/restimages/150433.jpg", "name": "Fat Rice", "price": 2, "mobile_reserve_url": "http://mobile.opentable.com/opentable/?restId=150433", "id": 150433, "country": "US", "phone": "7736619170x", "lat": 41.931925}, {"area": "Chicago / Illinois", "address": "3755 N Southport", "state": "IL", "lng": -87.663831, "postal_code": "60613", "city": "Chicago", "reserve_url": "http://www.opentable.com/single.aspx?rid=150607", "image_url": "https://www.opentable.com/img/restimages/150607.jpg", "name": "Spencer's Jolly Posh Foods", "price": 2, "mobile_reserve_url": "http://mobile.opentable.com/opentable/?restId=150607", "id": 150607, "country": "US", "phone": "8728023840x", "lat": 41.950555}, {"area": "Chicago / Illinois", "address": "100 E. Chestnut Street", "state": "IL", "lng": -87.6256, "postal_code": "60611", "city": "Chicago", "reserve_url": "http://www.opentable.com/single.aspx?rid=2448", "image_url": "https://www.opentable.com/img/restimages/2448.jpg", "name": "Ditka's - Chicago", "price": 3, "mobile_reserve_url": "http://mobile.opentable.com/opentable/?restId=2448", "id": 2448, "country": "US", "phone": "3125878989x", "lat": 41.8983}, {"area": "Chicago / Illinois", "address": "Conrad Chicago", "state": "IL", "lng": -87.625365, "postal_code": "60611", "city": "Chicago", "reserve_url": "http://www.opentable.com/single.aspx?rid=6650", "image_url": "https://www.opentable.com/img/restimages/6650.jpg", "name": "The Terrace Rooftop  Bar  Restaurant", "price": 3, "mobile_reserve_url": "http://mobile.opentable.com/opentable/?restId=6650", "id": 6650, "country": "US", "phone": "3123770979x", "lat": 41.891256}, {"area": "Chicago / Illinois", "address": "5316 N Clark Street", "state": "IL", "lng": -87.668256, "postal_code": "60640", "city": "Chicago", "reserve_url": "http://www.opentable.com/single.aspx?rid=16765", "image_url": "https://www.opentable.com/img/restimages/16765.jpg", "name": "Anteprima", "price": 3, "mobile_reserve_url": "http://mobile.opentable.com/opentable/?restId=16765", "id": 16765, "country": "US", "phone": "7735069990x", "lat": 41.978411}, {"area": "Chicago / Illinois", "address": "1028 North Rush", "state": "IL", "lng": -87.628244, "postal_code": "60611", "city": "Chicago", "reserve_url": "http://www.opentable.com/single.aspx?rid=1842", "image_url": "https://www.opentable.com/img/restimages/1842.jpg", "name": "Gibsons Bar & Steakhouse - Chicago", "price": 4, "mobile_reserve_url": "http://mobile.opentable.com/opentable/?restId=1842", "id": 1842, "country": "US", "phone": "3122668999", "lat": 41.90168}, {"area": "Chicago / Illinois", "address": "51 W. Hubbard", "state": "IL", "lng": -87.630093, "postal_code": "60654", "city": "Chicago", "reserve_url": "http://www.opentable.com/single.aspx?rid=23299", "image_url": "https://www.opentable.com/img/restimages/23299.jpg", "name": "HUB 51", "price": 2, "mobile_reserve_url": "http://mobile.opentable.com/opentable/?restId=23299", "id": 23299, "country": "US", "phone": "3128280051x", "lat": 41.889798}, {"area": "Chicago / Illinois", "address": "2300 N. Lincoln Park West", "state": "IL", "lng": -87.636973, "postal_code": "60614", "city": "Chicago", "reserve_url": "http://www.opentable.com/single.aspx?rid=20989", "image_url": "https://www.opentable.com/img/restimages/20989.jpg", "name": "L2O", "price": 4, "mobile_reserve_url": "http://mobile.opentable.com/opentable/?restId=20989", "id": 20989, "country": "US", "phone": "7738680002x", "lat": 41.924091}, {"area": "Chicago / Illinois", "address": "1531 N Wells Street", "state": "IL", "lng": -87.634223, "postal_code": "60610", "city": "Chicago", "reserve_url": "http://www.opentable.com/single.aspx?rid=2323", "image_url": "https://www.opentable.com/img/restimages/2323.jpg", "name": "Kamehachi of Tokyo - Wells Street", "price": 2, "mobile_reserve_url": "http://mobile.opentable.com/opentable/?restId=2323", "id": 2323, "country": "US", "phone": "3126643663", "lat": 41.910041}, {"area": "Chicago / Illinois", "address": "115 E Chicago Ave", "state": "IL", "lng": -87.625166, "postal_code": "60611", "city": "Chicago", "reserve_url": "http://www.opentable.com/single.aspx?rid=2092", "image_url": "https://www.opentable.com/img/restimages/2092.jpg", "name": "RL Restaurant", "price": 3, "mobile_reserve_url": "http://mobile.opentable.com/opentable/?restId=2092", "id": 2092, "country": "US", "phone": "3124751100", "lat": 41.896563}, {"area": "Chicago / Illinois", "address": "160 W. Adams Street", "state": "IL", "lng": -87.632668, "postal_code": "60603", "city": "Chicago", "reserve_url": "http://www.opentable.com/single.aspx?rid=22804", "image_url": "https://www.opentable.com/img/restimages/22804.jpg", "name": "AraOn", "price": 2, "mobile_reserve_url": "http://mobile.opentable.com/opentable/?restId=22804", "id": 22804, "country": "US", "phone": "3127817300", "lat": 41.879736}, {"area": "Chicago / Illinois", "address": "441 North Clark Street", "state": "IL", "lng": -87.63079, "postal_code": "60654", "city": "Chicago", "reserve_url": "http://www.opentable.com/single.aspx?rid=117958", "image_url": "https://www.opentable.com/img/restimages/117958.jpg", "name": "Bottlefork", "price": 2, "mobile_reserve_url": "http://mobile.opentable.com/opentable/?restId=117958", "id": 117958, "country": "US", "phone": "3129551900x", "lat": 41.890438}, {"area": "Chicago / Illinois", "address": "2925 N Halsted St", "state": "IL", "lng": -87.649099, "postal_code": "60657", "city": "Chicago", "reserve_url": "http://www.opentable.com/single.aspx?rid=107047", "image_url": "https://www.opentable.com/img/restimages/107047.jpg", "name": "Macku Signature", "price": 3, "mobile_reserve_url": "http://mobile.opentable.com/opentable/?restId=107047", "id": 107047, "country": "US", "phone": "7733608816x", "lat": 41.935593}, {"area": "Chicago / Illinois", "address": "224 North Michigan Ave", "state": "IL", "lng": -87.624614, "postal_code": "60601", "city": "Chicago", "reserve_url": "http://www.opentable.com/single.aspx?rid=91492", "image_url": "https://www.opentable.com/img/restimages/91492.jpg", "name": "Chuck's: A Kerry Simon Kitchen", "price": 2, "mobile_reserve_url": "http://mobile.opentable.com/opentable/?restId=91492", "id": 91492, "country": "US", "phone": "3123346700x", "lat": 41.886436}, {"area": "Chicago / Illinois", "address": "300 West Hubbard", "state": "IL", "lng": -87.635682, "postal_code": "60610", "city": "Chicago", "reserve_url": "http://www.opentable.com/single.aspx?rid=1004", "image_url": "https://www.opentable.com/img/restimages/1004.jpg", "name": "Coco Pazzo", "price": 3, "mobile_reserve_url": "http://mobile.opentable.com/opentable/?restId=1004", "id": 1004, "country": "US", "phone": "3128360900x", "lat": 41.890037}, {"area": "Chicago / Illinois", "address": "616 N Rush Street", "state": "IL", "lng": -87.62539, "postal_code": "60611", "city": "Chicago", "reserve_url": "http://www.opentable.com/single.aspx?rid=21979", "image_url": "https://www.opentable.com/img/restimages/21979.jpg", "name": "David Burke's Primehouse in the James Hotel", "price": 3, "mobile_reserve_url": "http://mobile.opentable.com/opentable/?restId=21979", "id": 21979, "country": "US", "phone": "3126606000x", "lat": 41.892946}, {"area": "Chicago / Illinois", "address": "311 North Sangamon", "state": "IL", "lng": -87.650677, "postal_code": "60607", "city": "Chicago", "reserve_url": "http://www.opentable.com/single.aspx?rid=139012", "image_url": "https://www.opentable.com/img/restimages/139012.jpg", "name": "Fulton Market Kitchen", "price": 3, "mobile_reserve_url": "http://mobile.opentable.com/opentable/?restId=139012", "id": 139012, "country": "US", "phone": "3127336900x", "lat": 41.887184}, {"area": "Chicago / Illinois", "address": "415 North Dearborn Street", "state": "IL", "lng": -87.629572, "postal_code": "60654", "city": "Chicago", "reserve_url": "http://www.opentable.com/single.aspx?rid=11725", "image_url": "https://www.opentable.com/img/restimages/11725.jpg", "name": "Sullivan's Steakhouse - Chicago", "price": 3, "mobile_reserve_url": "http://mobile.opentable.com/opentable/?restId=11725", "id": 11725, "country": "US", "phone": "3125273510x", "lat": 41.889706}, {"area": "Chicago / Illinois", "address": "2233 S Martin Luther King Drive", "state": "IL", "lng": -87.620661, "postal_code": "60601", "city": "Chicago", "reserve_url": "http://www.opentable.com/single.aspx?rid=14044", "image_url": "https://www.opentable.com/img/restimages/14044.jpg", "name": "Shor Restaurant \u2013 Hyatt Regency \u2013 McCormick", "price": 3, "mobile_reserve_url": "http://mobile.opentable.com/opentable/?restId=14044", "id": 14044, "country": "US", "phone": "3125284140", "lat": 41.853328}, {"area": "Chicago / Illinois", "address": "500 North Kingsbury Street", "state": "IL", "lng": -87.639264, "postal_code": "60654", "city": "Chicago", "reserve_url": "http://www.opentable.com/single.aspx?rid=30226", "image_url": "https://www.opentable.com/img/restimages/30226.jpg", "name": "East Bank Club- Maxwell's at the Club", "price": 2, "mobile_reserve_url": "http://mobile.opentable.com/opentable/?restId=30226", "id": 30226, "country": "US", "phone": "(312) 527-5800x301", "lat": 41.890731}, {"area": "Chicago / Illinois", "address": "1028 N. Clark St", "state": "IL", "lng": -87.631545, "postal_code": "60610", "city": "Chicago", "reserve_url": "http://www.opentable.com/single.aspx?rid=112834", "image_url": "https://www.opentable.com/img/restimages/112834.jpg", "name": "Vora", "price": 2, "mobile_reserve_url": "http://mobile.opentable.com/opentable/?restId=112834", "id": 112834, "country": "US", "phone": "3129292035x", "lat": 41.901531}, {"area": "Chicago / Illinois", "address": "1200 West Randolph Street", "state": "IL", "lng": -87.656973, "postal_code": "60607", "city": "Chicago", "reserve_url": "http://www.opentable.com/single.aspx?rid=98347", "image_url": "https://www.opentable.com/img/restimages/98347.jpg", "name": "City Winery - Chicago", "price": 3, "mobile_reserve_url": "http://mobile.opentable.com/opentable/?restId=98347", "id": 98347, "country": "US", "phone": "3122295992x", "lat": 41.884475}, {"area": "Chicago / Illinois", "address": "505 North State Street", "state": "IL", "lng": -87.628025, "postal_code": "60654", "city": "Chicago", "reserve_url": "http://www.opentable.com/single.aspx?rid=41947", "image_url": "https://www.opentable.com/img/restimages/41947.jpg", "name": "Sable Kitchen & Bar", "price": 3, "mobile_reserve_url": "http://mobile.opentable.com/opentable/?restId=41947", "id": 41947, "country": "US", "phone": "3127559704x", "lat": 41.891017}, {"area": "Chicago / Illinois", "address": "455 W North Ave", "state": "IL", "lng": -87.640812, "postal_code": "60610", "city": "Chicago", "reserve_url": "http://www.opentable.com/single.aspx?rid=101758", "image_url": "https://www.opentable.com/img/restimages/101758.jpg", "name": "Old Town Social", "price": 2, "mobile_reserve_url": "http://mobile.opentable.com/opentable/?restId=101758", "id": 101758, "country": "US", "phone": "3122662277", "lat": 41.91094}, {"area": "Chicago / Illinois", "address": "358 W Ontario St, 1-B", "state": "IL", "lng": -87.638226, "postal_code": "60654", "city": "Chicago", "reserve_url": "http://www.opentable.com/single.aspx?rid=110926", "image_url": "https://www.opentable.com/img/restimages/110926.jpg", "name": "Nouveau Tavern", "price": 3, "mobile_reserve_url": "http://mobile.opentable.com/opentable/?restId=110926", "id": 110926, "country": "US", "phone": "3129154100x", "lat": 41.893381}, {"area": "Chicago / Illinois", "address": "2240-42 W Devon", "state": "IL", "lng": -87.686607, "postal_code": "60659", "city": "Chicago", "reserve_url": "http://www.opentable.com/single.aspx?rid=95128", "image_url": "https://www.opentable.com/img/restimages/95128.jpg", "name": "Chopal Kabab & Steak", "price": 2, "mobile_reserve_url": "http://mobile.opentable.com/opentable/?restId=95128", "id": 95128, "country": "US", "phone": "7733384080", "lat": 41.998023}, {"area": "Chicago / Illinois", "address": "15 East Huron Street", "state": "IL", "lng": -87.627263, "postal_code": "60611", "city": "Chicago", "reserve_url": "http://www.opentable.com/single.aspx?rid=109567", "image_url": "https://www.opentable.com/img/restimages/109567.jpg", "name": "ikram cafe", "price": 2, "mobile_reserve_url": "http://mobile.opentable.com/opentable/?restId=109567", "id": 109567, "country": "US", "phone": "3125871000", "lat": 41.894779}, {"area": "Chicago / Illinois", "address": "333 East Randolph St", "state": "IL", "lng": -87.619487, "postal_code": "60601", "city": "Chicago", "reserve_url": "http://www.opentable.com/single.aspx?rid=137149", "image_url": "https://www.opentable.com/img/restimages/137149.jpg", "name": "Yum Cha", "price": 3, "mobile_reserve_url": "http://mobile.opentable.com/opentable/?restId=137149", "id": 137149, "country": "US", "phone": "3129468885x", "lat": 41.884316}, {"area": "Chicago / Illinois", "address": "330 N Wabash Ave", "state": "IL", "lng": -87.627258, "postal_code": "60611", "city": "Chicago", "reserve_url": "http://www.opentable.com/single.aspx?rid=109561", "image_url": "https://www.opentable.com/img/restimages/109561.jpg", "name": "Pavilion - The Langham, Chicago", "price": 3, "mobile_reserve_url": "http://mobile.opentable.com/opentable/?restId=109561", "id": 109561, "country": "US", "phone": "3129237710x", "lat": 41.888564}, {"area": "Chicago / Illinois", "address": "1462 E. 53rd Street", "state": "IL", "lng": -87.589857, "postal_code": "60615", "city": "Chicago", "reserve_url": "http://www.opentable.com/single.aspx?rid=114625", "image_url": "https://www.opentable.com/img/restimages/114625.jpg", "name": "A10 Hyde Park", "price": 2, "mobile_reserve_url": "http://mobile.opentable.com/opentable/?restId=114625", "id": 114625, "country": "US", "phone": "7732881010x", "lat": 41.799525}, {"area": "Chicago / Illinois", "address": "3056 Lincoln Ave.", "state": "IL", "lng": -87.665649, "postal_code": "60657", "city": "Chicago", "reserve_url": "http://www.opentable.com/single.aspx?rid=136327", "image_url": "https://www.opentable.com/img/restimages/136327.jpg", "name": "Ani", "price": 3, "mobile_reserve_url": "http://mobile.opentable.com/opentable/?restId=136327", "id": 136327, "country": "US", "phone": "8722068553x", "lat": 41.937143}, {"area": "Chicago / Illinois", "address": "2039 West North Avenue", "state": "IL", "lng": -87.678988, "postal_code": "60647", "city": "Chicago", "reserve_url": "http://www.opentable.com/single.aspx?rid=89845", "image_url": "https://www.opentable.com/img/restimages/89845.jpg", "name": "Trenchermen", "price": 2, "mobile_reserve_url": "http://mobile.opentable.com/opentable/?restId=89845", "id": 89845, "country": "US", "phone": "7736611540x", "lat": 41.91039}, {"area": "Chicago / Illinois", "address": "110 East Pearson", "state": "IL", "lng": -87.625147, "postal_code": "60611", "city": "Chicago", "reserve_url": "http://www.opentable.com/single.aspx?rid=81271", "image_url": "https://www.opentable.com/img/restimages/81271.jpg", "name": "Bar Toma", "price": 2, "mobile_reserve_url": "http://mobile.opentable.com/opentable/?restId=81271", "id": 81271, "country": "US", "phone": "3122663110x", "lat": 41.897694}, {"area": "Chicago / Illinois", "address": "59 W. Grand Ave", "state": "IL", "lng": -87.630365, "postal_code": "63277", "city": "Chicago", "reserve_url": "http://www.opentable.com/single.aspx?rid=63277", "image_url": "https://www.opentable.com/img/restimages/63277.jpg", "name": "India House, Chicago", "price": 2, "mobile_reserve_url": "http://mobile.opentable.com/opentable/?restId=63277", "id": 63277, "country": "US", "phone": "3126459500", "lat": 41.891622}, {"area": "Chicago / Illinois", "address": "1419 N. Wells St", "state": "IL", "lng": -87.634163, "postal_code": "60610", "city": "Chicago", "reserve_url": "http://www.opentable.com/single.aspx?rid=82570", "image_url": "https://www.opentable.com/img/restimages/82570.jpg", "name": "Old Town Pour House", "price": 2, "mobile_reserve_url": "http://mobile.opentable.com/opentable/?restId=82570", "id": 82570, "country": "US", "phone": "3124772800x", "lat": 41.908183}, {"area": "Chicago / Illinois", "address": "52 West Elm Street", "state": "IL", "lng": -87.63038, "postal_code": "60610", "city": "Chicago", "reserve_url": "http://www.opentable.com/single.aspx?rid=30163", "image_url": "https://www.opentable.com/img/restimages/30163.jpg", "name": "Table Fifty-Two", "price": 3, "mobile_reserve_url": "http://mobile.opentable.com/opentable/?restId=30163", "id": 30163, "country": "US", "phone": "3125734000x", "lat": 41.903138}, {"area": "Chicago / Illinois", "address": "2523 N. Milwaukee Ave", "state": "IL", "lng": -87.704113, "postal_code": "60647", "city": "Chicago", "reserve_url": "http://www.opentable.com/single.aspx?rid=148738", "image_url": "https://www.opentable.com/img/restimages/148738.jpg", "name": "Analogue", "price": 2, "mobile_reserve_url": "http://mobile.opentable.com/opentable/?restId=148738", "id": 148738, "country": "US", "phone": "7739048567x", "lat": 41.927324}, {"area": "Chicago / Illinois", "address": "331 W. Superior", "state": "IL", "lng": -87.636983, "postal_code": "60654", "city": "Chicago", "reserve_url": "http://www.opentable.com/single.aspx?rid=64945", "image_url": "https://www.opentable.com/img/restimages/64945.jpg", "name": "Club Lago Restaurant", "price": 2, "mobile_reserve_url": "http://mobile.opentable.com/opentable/?restId=64945", "id": 64945, "country": "US", "phone": "3129512849", "lat": 41.895296}, {"area": "Chicago / Illinois", "address": "1209 N Noble Street (free parking)", "state": "IL", "lng": -87.662594, "postal_code": "60642", "city": "Chicago", "reserve_url": "http://www.opentable.com/single.aspx?rid=59935", "image_url": "https://www.opentable.com/img/restimages/59935.jpg", "name": "Blue Star Bistro & Wine Bar", "price": 2, "mobile_reserve_url": "http://mobile.opentable.com/opentable/?restId=59935", "id": 59935, "country": "US", "phone": "7732782233x", "lat": 41.90377}, {"area": "Chicago / Illinois", "address": "1030 N. State St", "state": "IL", "lng": -87.62888, "postal_code": "60610", "city": "Chicago", "reserve_url": "http://www.opentable.com/single.aspx?rid=112885", "image_url": "https://www.opentable.com/img/restimages/112885.jpg", "name": "Connie's Pizza in Gold Coast", "price": 2, "mobile_reserve_url": "http://mobile.opentable.com/opentable/?restId=112885", "id": 112885, "country": "US", "phone": "3123263443x", "lat": 41.901337}, {"area": "Chicago / Illinois", "address": "1011 W. Irving Park Rd", "state": "IL", "lng": -87.654956, "postal_code": "60613", "city": "Chicago", "reserve_url": "http://www.opentable.com/single.aspx?rid=110125", "image_url": "https://www.opentable.com/img/restimages/110125.jpg", "name": "Fornello Trattoria", "price": 2, "mobile_reserve_url": "http://mobile.opentable.com/opentable/?restId=110125", "id": 110125, "country": "US", "phone": "7734041800x", "lat": 41.954473}, {"area": "Chicago / Illinois", "address": "1344 W. Newport", "state": "IL", "lng": -87.663521, "postal_code": "60657", "city": "Chicago", "reserve_url": "http://www.opentable.com/single.aspx?rid=73690", "image_url": "https://www.opentable.com/img/restimages/73690.jpg", "name": "Newport Bar and Grill", "price": 2, "mobile_reserve_url": "http://mobile.opentable.com/opentable/?restId=73690", "id": 73690, "country": "US", "phone": "7733259111x", "lat": 41.944433}, {"area": "Chicago / Illinois", "address": "435 N Clark St", "state": "IL", "lng": -87.630945, "postal_code": "60654", "city": "Chicago", "reserve_url": "http://www.opentable.com/single.aspx?rid=100258", "image_url": "https://www.opentable.com/img/restimages/100258.jpg", "name": "Bub City", "price": 2, "mobile_reserve_url": "http://mobile.opentable.com/opentable/?restId=100258", "id": 100258, "country": "US", "phone": "312-610-4200x", "lat": 41.890351}, {"area": "Chicago / Illinois", "address": "6340 N Lincoln", "state": "IL", "lng": -87.717446, "postal_code": "60659", "city": "Chicago", "reserve_url": "http://www.opentable.com/single.aspx?rid=700", "image_url": "https://www.opentable.com/img/restimages/700.jpg", "name": "Via Veneto", "price": 2, "mobile_reserve_url": "http://mobile.opentable.com/opentable/?restId=700", "id": 700, "country": "US", "phone": "7732670888", "lat": 41.99639}, {"area": "Chicago / Illinois", "address": "1015 N Rush St", "state": "IL", "lng": -87.627429, "postal_code": "60611", "city": "Chicago", "reserve_url": "http://www.opentable.com/single.aspx?rid=115525", "image_url": "https://www.opentable.com/img/restimages/115525.jpg", "name": "Nico Osteria", "price": 4, "mobile_reserve_url": "http://mobile.opentable.com/opentable/?restId=115525", "id": 115525, "country": "US", "phone": "3129947100x", "lat": 41.901285}, {"area": "Chicago / Illinois", "address": "1039 West Bryn Mawr Avenue", "state": "IL", "lng": -87.656707, "postal_code": "60660", "city": "Chicago", "reserve_url": "http://www.opentable.com/single.aspx?rid=26737", "image_url": "https://www.opentable.com/img/restimages/26737.jpg", "name": "Francesca's Bryn Mawr", "price": 2, "mobile_reserve_url": "http://mobile.opentable.com/opentable/?restId=26737", "id": 26737, "country": "US", "phone": "7735069261x", "lat": 41.983629}, {"area": "Chicago / Illinois", "address": "16 W Maple St", "state": "IL", "lng": -87.628918, "postal_code": "60610", "city": "Chicago", "reserve_url": "http://www.opentable.com/single.aspx?rid=6382", "image_url": "https://www.opentable.com/img/restimages/6382.jpg", "name": "Merlo on Maple", "price": 4, "mobile_reserve_url": "http://mobile.opentable.com/opentable/?restId=6382", "id": 6382, "country": "US", "phone": "3123358200x", "lat": 41.901956}, {"area": "Chicago / Illinois", "address": "210 E. Ohio St", "state": "IL", "lng": -87.622345, "postal_code": "60611", "city": "Chicago", "reserve_url": "http://www.opentable.com/single.aspx?rid=47959", "image_url": "https://www.opentable.com/img/restimages/47959.jpg", "name": "Gyu-Kaku - Chicago", "price": 2, "mobile_reserve_url": "http://mobile.opentable.com/opentable/?restId=47959", "id": 47959, "country": "US", "phone": "3122668929", "lat": 41.892749}, {"area": "Chicago / Illinois", "address": "226 West Chicago Ave", "state": "IL", "lng": -87.63533, "postal_code": "60654", "city": "Chicago", "reserve_url": "http://www.opentable.com/single.aspx?rid=65644", "image_url": "https://www.opentable.com/img/restimages/65644.jpg", "name": "Bistro Voltaire", "price": 2, "mobile_reserve_url": "http://mobile.opentable.com/opentable/?restId=65644", "id": 65644, "country": "US", "phone": "3122650911x", "lat": 41.896606}, {"area": "Chicago / Illinois", "address": "247 E Ontario", "state": "IL", "lng": -87.621588, "postal_code": "60611", "city": "Chicago", "reserve_url": "http://www.opentable.com/single.aspx?rid=8030", "image_url": "https://www.opentable.com/img/restimages/8030.jpg", "name": "The Indian Garden - Chicago", "price": 2, "mobile_reserve_url": "http://mobile.opentable.com/opentable/?restId=8030", "id": 8030, "country": "US", "phone": "3122804910", "lat": 41.893353}, {"area": "Chicago / Illinois", "address": "328 S Jefferson", "state": "IL", "lng": -87.642755, "postal_code": "60661", "city": "Chicago", "reserve_url": "http://www.opentable.com/single.aspx?rid=156895", "image_url": "https://www.opentable.com/img/restimages/156895.jpg", "name": "Paola's Vinum", "price": 2, "mobile_reserve_url": "http://mobile.opentable.com/opentable/?restId=156895", "id": 156895, "country": "US", "phone": "3127759311x", "lat": 41.877132}, {"area": "Chicago / Illinois", "address": "1032 W. Lake St.", "state": "IL", "lng": -87.653505, "postal_code": "60607", "city": "Chicago", "reserve_url": "http://www.opentable.com/single.aspx?rid=146662", "image_url": "https://www.opentable.com/img/restimages/146662.jpg", "name": "Baba Pita", "price": 2, "mobile_reserve_url": "http://mobile.opentable.com/opentable/?restId=146662", "id": 146662, "country": "US", "phone": "3122433439", "lat": 41.8858}, {"area": "Chicago / Illinois", "address": "1154 W. Taylor St.", "state": "IL", "lng": -87.655827, "postal_code": "60607", "city": "Chicago", "reserve_url": "http://www.opentable.com/single.aspx?rid=158", "image_url": "https://www.opentable.com/img/restimages/158.jpg", "name": "RoSal's", "price": 2, "mobile_reserve_url": "http://mobile.opentable.com/opentable/?restId=158", "id": 158, "country": "US", "phone": "3122432357x", "lat": 41.869637}, {"area": "Chicago / Illinois", "address": "1530 S. State Street", "state": "IL", "lng": -87.627319, "postal_code": "60605", "city": "Chicago", "reserve_url": "http://www.opentable.com/single.aspx?rid=28198", "image_url": "https://www.opentable.com/img/restimages/28198.jpg", "name": "Tapas Valencia", "price": 2, "mobile_reserve_url": "http://mobile.opentable.com/opentable/?restId=28198", "id": 28198, "country": "US", "phone": "3128424444", "lat": 41.861048}, {"area": "Chicago / Illinois", "address": "676 North Saint Clair Street", "state": "IL", "lng": -87.622937, "postal_code": "60611", "city": "Chicago", "reserve_url": "http://www.opentable.com/single.aspx?rid=168", "image_url": "https://www.opentable.com/img/restimages/168.jpg", "name": "TRU", "price": 4, "mobile_reserve_url": "http://mobile.opentable.com/opentable/?restId=168", "id": 168, "country": "US", "phone": "3122020001x", "lat": 41.894522}, {"area": "Chicago / Illinois", "address": "2507 Lincoln Ave", "state": "IL", "lng": -87.651411, "postal_code": "60614", "city": "Chicago", "reserve_url": "http://www.opentable.com/single.aspx?rid=55369", "image_url": "https://www.opentable.com/img/restimages/55369.jpg", "name": "Ringo Japanese Kitchen", "price": 2, "mobile_reserve_url": "http://mobile.opentable.com/opentable/?restId=55369", "id": 55369, "country": "US", "phone": "7732485788", "lat": 41.927478}, {"area": "Chicago / Illinois", "address": "1113 W. Randolph", "state": "IL", "lng": -87.654862, "postal_code": "60607", "city": "Chicago", "reserve_url": "http://www.opentable.com/single.aspx?rid=31237", "image_url": "https://www.opentable.com/img/restimages/31237.jpg", "name": "Packing House", "price": 2, "mobile_reserve_url": "http://mobile.opentable.com/opentable/?restId=31237", "id": 31237, "country": "US", "phone": "3129294787x", "lat": 41.883979}, {"area": "Chicago / Illinois", "address": "412 N Clark", "state": "IL", "lng": -87.631766, "postal_code": "60654", "city": "Chicago", "reserve_url": "http://www.opentable.com/single.aspx?rid=35425", "image_url": "https://www.opentable.com/img/restimages/35425.jpg", "name": "Havana", "price": 2, "mobile_reserve_url": "http://mobile.opentable.com/opentable/?restId=35425", "id": 35425, "country": "US", "phone": "3126441900", "lat": 41.889766}, {"area": "Chicago / Illinois", "address": "1828 W. Montrose", "state": "IL", "lng": -87.675116, "postal_code": "60613", "city": "Chicago", "reserve_url": "http://www.opentable.com/single.aspx?rid=67639", "image_url": "https://www.opentable.com/img/restimages/67639.jpg", "name": "Roong Petch", "price": 2, "mobile_reserve_url": "http://mobile.opentable.com/opentable/?restId=67639", "id": 67639, "country": "US", "phone": "7739890818", "lat": 41.961524}, {"area": "Chicago / Illinois", "address": "188 West Randolph", "state": "IL", "lng": -87.633607, "postal_code": "60601", "city": "Chicago", "reserve_url": "http://www.opentable.com/single.aspx?rid=144715", "image_url": "https://www.opentable.com/img/restimages/144715.jpg", "name": "Randolph Tavern", "price": 2, "mobile_reserve_url": "http://mobile.opentable.com/opentable/?restId=144715", "id": 144715, "country": "US", "phone": "3126833280", "lat": 41.884625}, {"area": "Chicago / Illinois", "address": "113-125 North Green Street", "state": "IL", "lng": -87.648281, "postal_code": "60607", "city": "Chicago", "reserve_url": "http://www.opentable.com/single.aspx?rid=151810", "image_url": "https://www.opentable.com/img/restimages/151810.jpg", "name": "Chicken Shop - Chicago", "price": 2, "mobile_reserve_url": "http://mobile.opentable.com/opentable/?restId=151810", "id": 151810, "country": "US", "phone": "312 754 6920x", "lat": 41.883746}, {"area": "Chicago / Illinois", "address": "2610 North Cannon Drive", "state": "IL", "lng": -87.6356, "postal_code": "60657", "city": "Chicago", "reserve_url": "http://www.opentable.com/single.aspx?rid=2796", "image_url": "https://www.opentable.com/img/restimages/2796.jpg", "name": "North Pond", "price": 4, "mobile_reserve_url": "http://mobile.opentable.com/opentable/?restId=2796", "id": 2796, "country": "US", "phone": "7734775845x", "lat": 41.9289}, {"area": "Chicago / Illinois", "address": "119 N Green St", "state": "IL", "lng": -87.648579, "postal_code": "60667", "city": "Chicago", "reserve_url": "http://www.opentable.com/single.aspx?rid=150208", "image_url": "https://www.opentable.com/img/restimages/150208.jpg", "name": "Pizza East - Chicago", "price": 2, "mobile_reserve_url": "http://mobile.opentable.com/opentable/?restId=150208", "id": 150208, "country": "US", "phone": "312 754 6920x", "lat": 41.883846}, {"area": "Chicago / Illinois", "address": "2706 W. Peterson", "state": "IL", "lng": -87.697353, "postal_code": "60659", "city": "Chicago", "reserve_url": "http://www.opentable.com/single.aspx?rid=145702", "image_url": "https://www.opentable.com/img/restimages/145702.jpg", "name": "Pride Sushi and Thai", "price": 2, "mobile_reserve_url": "http://mobile.opentable.com/opentable/?restId=145702", "id": 145702, "country": "US", "phone": "7733813354", "lat": 41.990712}, {"area": "Chicago / Illinois", "address": "945 W Fulton", "state": "IL", "lng": -87.651575, "postal_code": "60607", "city": "Chicago", "reserve_url": "http://www.opentable.com/single.aspx?rid=4510", "image_url": "https://www.opentable.com/img/restimages/4510.jpg", "name": "Moto Restaurant", "price": 4, "mobile_reserve_url": "http://mobile.opentable.com/opentable/?restId=4510", "id": 4510, "country": "US", "phone": "3124910058", "lat": 41.886738}, {"area": "Chicago / Illinois", "address": "1050 North State Street", "state": "IL", "lng": -87.6284, "postal_code": "60610", "city": "Chicago", "reserve_url": "http://www.opentable.com/single.aspx?rid=2519", "image_url": "https://www.opentable.com/img/restimages/2519.jpg", "name": "Morton's The Steakhouse - Chicago - The Original", "price": 4, "mobile_reserve_url": "http://mobile.opentable.com/opentable/?restId=2519", "id": 2519, "country": "US", "phone": "3122664820", "lat": 41.9012}, {"area": "Chicago / Illinois", "address": "24 South Michigan Ave", "state": "IL", "lng": -87.624453, "postal_code": "60603", "city": "Chicago", "reserve_url": "http://www.opentable.com/single.aspx?rid=10315", "image_url": "https://www.opentable.com/img/restimages/10315.jpg", "name": "The Gage", "price": 2, "mobile_reserve_url": "http://mobile.opentable.com/opentable/?restId=10315", "id": 10315, "country": "US", "phone": "3123724243", "lat": 41.88179}, {"area": "Chicago / Illinois", "address": "2056 N. Lincoln Park West", "state": "IL", "lng": -87.636439, "postal_code": "60614", "city": "Chicago", "reserve_url": "http://www.opentable.com/single.aspx?rid=46147", "image_url": "https://www.opentable.com/img/restimages/46147.jpg", "name": "R J Grunt's", "price": 2, "mobile_reserve_url": "http://mobile.opentable.com/opentable/?restId=46147", "id": 46147, "country": "US", "phone": "7739295363", "lat": 41.919495}, {"area": "Chicago / Illinois", "address": "42 E Superior St", "state": "IL", "lng": -87.626555, "postal_code": "60611", "city": "Chicago", "reserve_url": "http://www.opentable.com/single.aspx?rid=99931", "image_url": "https://www.opentable.com/img/restimages/99931.jpg", "name": "Sunny Side Up", "price": 2, "mobile_reserve_url": "http://mobile.opentable.com/opentable/?restId=99931", "id": 99931, "country": "US", "phone": "3129304242", "lat": 41.895933}, {"area": "Chicago / Illinois", "address": "1924 S State Street", "state": "IL", "lng": -87.627173, "postal_code": "60616", "city": "Chicago", "reserve_url": "http://www.opentable.com/single.aspx?rid=13432", "image_url": "https://www.opentable.com/img/restimages/13432.jpg", "name": "Caf\u00e9 Bionda", "price": 2, "mobile_reserve_url": "http://mobile.opentable.com/opentable/?restId=13432", "id": 13432, "country": "US", "phone": "3123269800x", "lat": 41.856379}, {"area": "Chicago / Illinois", "address": "225 N. Wabash Ave.", "state": "IL", "lng": -87.626115, "postal_code": "60601", "city": "Chicago", "reserve_url": "http://www.opentable.com/single.aspx?rid=138", "image_url": "https://www.opentable.com/img/restimages/138.jpg", "name": "South Water Kitchen", "price": 2, "mobile_reserve_url": "http://mobile.opentable.com/opentable/?restId=138", "id": 138, "country": "US", "phone": "3122369300x", "lat": 41.886052}, {"area": "Chicago / Illinois", "address": "3800 North Clark Street", "state": "IL", "lng": -87.659859, "postal_code": "60613", "city": "Chicago", "reserve_url": "http://www.opentable.com/single.aspx?rid=150811", "image_url": "https://www.opentable.com/img/restimages/150811.jpg", "name": "Uncommon Ground-Lakeview", "price": 2, "mobile_reserve_url": "http://mobile.opentable.com/opentable/?restId=150811", "id": 150811, "country": "US", "phone": "7739293680x", "lat": 41.95119}, {"area": "Chicago / Illinois", "address": "66 West Kinzie St", "state": "IL", "lng": -87.6304, "postal_code": "60654", "city": "Chicago", "reserve_url": "http://www.opentable.com/single.aspx?rid=144913", "image_url": "https://www.opentable.com/img/restimages/144913.jpg", "name": "RPM Steak", "price": 4, "mobile_reserve_url": "http://mobile.opentable.com/opentable/?restId=144913", "id": 144913, "country": "US", "phone": "3122844990x", "lat": 41.889238}, {"area": "Chicago / Illinois", "address": "65 East Wacker Place", "state": "IL", "lng": -87.625604, "postal_code": "60601", "city": "Chicago", "reserve_url": "http://www.opentable.com/single.aspx?rid=3929", "image_url": "https://www.opentable.com/img/restimages/3929.jpg", "name": "Morton's The Steakhouse - Chicago - Wacker Place", "price": 4, "mobile_reserve_url": "http://mobile.opentable.com/opentable/?restId=3929", "id": 3929, "country": "US", "phone": "3122010410x", "lat": 41.886766}, {"area": "Chicago / Illinois", "address": "401 N. Wabash", "state": "IL", "lng": -87.626714, "postal_code": "60611", "city": "Chicago", "reserve_url": "http://www.opentable.com/single.aspx?rid=19900", "image_url": "https://www.opentable.com/img/restimages/19900.jpg", "name": "Sixteen", "price": 4, "mobile_reserve_url": "http://mobile.opentable.com/opentable/?restId=19900", "id": 19900, "country": "US", "phone": "3125888030x", "lat": 41.889526}, {"area": "Chicago / Illinois", "address": "301 East North Water St.", "state": "IL", "lng": -87.620221, "postal_code": "60611", "city": "Chicago", "reserve_url": "http://www.opentable.com/single.aspx?rid=2076", "image_url": "https://www.opentable.com/img/restimages/2076.jpg", "name": "Shula's Steak House - Chicago", "price": 3, "mobile_reserve_url": "http://mobile.opentable.com/opentable/?restId=2076", "id": 2076, "country": "US", "phone": "3126700788", "lat": 41.889338}, {"area": "Chicago / Illinois", "address": "3524 N. Clark Street", "state": "IL", "lng": -87.655872, "postal_code": "60657", "city": "Chicago", "reserve_url": "http://www.opentable.com/single.aspx?rid=145651", "image_url": "https://www.opentable.com/img/restimages/145651.jpg", "name": "John Barleycorn Wrigleyville", "price": 2, "mobile_reserve_url": "http://mobile.opentable.com/opentable/?restId=145651", "id": 145651, "country": "US", "phone": "7735496000", "lat": 41.946233}, {"area": "Chicago / Illinois", "address": "939 N Ashland", "state": "IL", "lng": -87.666989, "postal_code": "60622", "city": "Chicago", "reserve_url": "http://www.opentable.com/single.aspx?rid=139000", "image_url": "https://www.opentable.com/img/restimages/139000.jpg", "name": "Rakki Kyu", "price": 2, "mobile_reserve_url": "http://mobile.opentable.com/opentable/?restId=139000", "id": 139000, "country": "US", "phone": "7737725985", "lat": 41.899109}, {"area": "Chicago / Illinois", "address": "127 W Huron", "state": "IL", "lng": -87.631962, "postal_code": "60654", "city": "Chicago", "reserve_url": "http://www.opentable.com/single.aspx?rid=148327", "image_url": "https://www.opentable.com/img/restimages/148327.jpg", "name": "IO Urban Roofscape \u2013 The Godfrey Chicago", "price": 2, "mobile_reserve_url": "http://mobile.opentable.com/opentable/?restId=148327", "id": 148327, "country": "US", "phone": "3126492000", "lat": 41.894585}, {"area": "Chicago / Illinois", "address": "4156 N. Kedzie", "state": "IL", "lng": -87.708462, "postal_code": "60618", "city": "Chicago", "reserve_url": "http://www.opentable.com/single.aspx?rid=70114", "image_url": "https://www.opentable.com/img/restimages/70114.jpg", "name": "Arun's", "price": 4, "mobile_reserve_url": "http://mobile.opentable.com/opentable/?restId=70114", "id": 70114, "country": "US", "phone": "7735391909", "lat": 41.957442}, {"area": "Chicago / Illinois", "address": "700 North Michigan Ave.", "state": "IL", "lng": -87.624687, "postal_code": "60611", "city": "Chicago", "reserve_url": "http://www.opentable.com/single.aspx?rid=117547", "image_url": "https://www.opentable.com/img/restimages/117547.jpg", "name": "Sophie's at Saks Fifth Avenue- Chicago", "price": 2, "mobile_reserve_url": "http://mobile.opentable.com/opentable/?restId=117547", "id": 117547, "country": "US", "phone": "3125253400x", "lat": 41.895233}, {"area": "Chicago / Illinois", "address": "216 N Wabash", "state": "IL", "lng": -87.626777, "postal_code": "60601", "city": "Chicago", "reserve_url": "http://www.opentable.com/single.aspx?rid=10147", "image_url": "https://www.opentable.com/img/restimages/10147.jpg", "name": "Emerald Loop Bar and Grill", "price": 2, "mobile_reserve_url": "http://mobile.opentable.com/opentable/?restId=10147", "id": 10147, "country": "US", "phone": "3122630200", "lat": 41.886511}, {"area": "Chicago / Illinois", "address": "58 East Oak Street", "state": "IL", "lng": -87.626343, "postal_code": "60611", "city": "Chicago", "reserve_url": "http://www.opentable.com/single.aspx?rid=88825", "image_url": "https://www.opentable.com/img/restimages/88825.jpg", "name": "Del Frisco's Double Eagle Steak House - Chicago", "price": 4, "mobile_reserve_url": "http://mobile.opentable.com/opentable/?restId=88825", "id": 88825, "country": "US", "phone": "3128882499x", "lat": 41.900842}, {"area": "Chicago / Illinois", "address": "1401 S. Michigan Ave", "state": "IL", "lng": -87.623806, "postal_code": "60605", "city": "Chicago", "reserve_url": "http://www.opentable.com/single.aspx?rid=1033", "image_url": "https://www.opentable.com/img/restimages/1033.jpg", "name": "Chicago Firehouse Restaurant", "price": 3, "mobile_reserve_url": "http://mobile.opentable.com/opentable/?restId=1033", "id": 1033, "country": "US", "phone": "3127861401", "lat": 41.863948}, {"area": "Chicago / Illinois", "address": "2300 N. Lincoln Park West", "state": "IL", "lng": -87.636783, "postal_code": "60614", "city": "Chicago", "reserve_url": "http://www.opentable.com/single.aspx?rid=489", "image_url": "https://www.opentable.com/img/restimages/489.jpg", "name": "Mon Ami Gabi", "price": 2, "mobile_reserve_url": "http://mobile.opentable.com/opentable/?restId=489", "id": 489, "country": "US", "phone": "773-348-8886x", "lat": 41.923937}, {"area": "Chicago / Illinois", "address": "837 W. Fulton Market", "state": "IL", "lng": -87.649241, "postal_code": "60607", "city": "Chicago", "reserve_url": "http://www.opentable.com/single.aspx?rid=27424", "image_url": "https://www.opentable.com/img/restimages/27424.jpg", "name": "The Publican", "price": 2, "mobile_reserve_url": "http://mobile.opentable.com/opentable/?restId=27424", "id": 27424, "country": "US", "phone": "3127339555", "lat": 41.88655}, {"area": "Chicago / Illinois", "address": "500 N. LaSalle St", "state": "IL", "lng": -87.632686, "postal_code": "60654", "city": "Chicago", "reserve_url": "http://www.opentable.com/single.aspx?rid=140887", "image_url": "https://www.opentable.com/img/restimages/140887.jpg", "name": "Gino's East", "price": 2, "mobile_reserve_url": "http://mobile.opentable.com/opentable/?restId=140887", "id": 140887, "country": "US", "phone": "3129884200", "lat": 41.890801}, {"area": "Chicago / Illinois", "address": "644 North Lake Shore Drive", "state": "IL", "lng": -87.615366, "postal_code": "60611", "city": "Chicago", "reserve_url": "http://www.opentable.com/single.aspx?rid=1805", "image_url": "https://www.opentable.com/img/restimages/1805.jpg", "name": "Current", "price": 2, "mobile_reserve_url": "http://mobile.opentable.com/opentable/?restId=1805", "id": 1805, "country": "US", "phone": "3122554460x", "lat": 41.893842}, {"area": "Chicago / Illinois", "address": "203 E. Ohio Street", "state": "IL", "lng": -87.622483, "postal_code": "60611", "city": "Chicago", "reserve_url": "http://www.opentable.com/single.aspx?rid=149731", "image_url": "https://www.opentable.com/img/restimages/149731.jpg", "name": "Waffles Cafe - Streeterville", "price": 2, "mobile_reserve_url": "http://mobile.opentable.com/opentable/?restId=149731", "id": 149731, "country": "US", "phone": "3128461242", "lat": 41.892546}, {"area": "Chicago / Illinois", "address": "151 West Adams Street", "state": "IL", "lng": -87.632432, "postal_code": "60604", "city": "Chicago", "reserve_url": "http://www.opentable.com/single.aspx?rid=51226", "image_url": "https://www.opentable.com/img/restimages/51226.jpg", "name": "The Florentine", "price": 4, "mobile_reserve_url": "http://mobile.opentable.com/opentable/?restId=51226", "id": 51226, "country": "US", "phone": "3126608866", "lat": 41.879017}, {"area": "Chicago / Illinois", "address": "888 South Michigan Ave", "state": "IL", "lng": -87.62471, "postal_code": "60605", "city": "Chicago", "reserve_url": "http://www.opentable.com/single.aspx?rid=147874", "image_url": "https://www.opentable.com/img/restimages/147874.jpg", "name": "Niu B Sushi & Robata - South Michigan Ave", "price": 2, "mobile_reserve_url": "http://mobile.opentable.com/opentable/?restId=147874", "id": 147874, "country": "US", "phone": "3129221127x", "lat": 41.870743}, {"area": "Chicago / Illinois", "address": "330 N State Street", "state": "IL", "lng": -87.628091, "postal_code": "60610", "city": "Chicago", "reserve_url": "http://www.opentable.com/single.aspx?rid=7267", "image_url": "https://www.opentable.com/img/restimages/7267.jpg", "name": "10pin Bowling Lounge", "price": 4, "mobile_reserve_url": "http://mobile.opentable.com/opentable/?restId=7267", "id": 7267, "country": "US", "phone": "3126440300x", "lat": 41.888634}, {"area": "Chicago / Illinois", "address": "60 W Ontario St", "state": "IL", "lng": -87.63045, "postal_code": "60654", "city": "Chicago", "reserve_url": "http://www.opentable.com/single.aspx?rid=147604", "image_url": "https://www.opentable.com/img/restimages/147604.jpg", "name": "Chicago Chop House", "price": 4, "mobile_reserve_url": "http://mobile.opentable.com/opentable/?restId=147604", "id": 147604, "country": "US", "phone": "3127877100", "lat": 41.893491}, {"area": "Chicago / Illinois", "address": "2824 West Armitage Avenue", "state": "IL", "lng": -87.698281, "postal_code": "60647", "city": "Chicago", "reserve_url": "http://www.opentable.com/single.aspx?rid=149062", "image_url": "https://www.opentable.com/img/restimages/149062.jpg", "name": "Osteria Langhe", "price": 2, "mobile_reserve_url": "http://mobile.opentable.com/opentable/?restId=149062", "id": 149062, "country": "US", "phone": "7736611582x", "lat": 41.917688}, {"area": "Chicago / Illinois", "address": "633 North Saint Clair", "state": "IL", "lng": -87.622615, "postal_code": "60611", "city": "Chicago", "reserve_url": "http://www.opentable.com/single.aspx?rid=2053", "image_url": "https://www.opentable.com/img/restimages/2053.jpg", "name": "The Capital Grille - Chicago - Downtown", "price": 4, "mobile_reserve_url": "http://mobile.opentable.com/opentable/?restId=2053", "id": 2053, "country": "US", "phone": "3123379400x", "lat": 41.893591}, {"area": "Chicago / Illinois", "address": "875 N. Michigan Avenue", "state": "IL", "lng": -87.6241, "postal_code": "60611", "city": "Chicago", "reserve_url": "http://www.opentable.com/single.aspx?rid=3401", "image_url": "https://www.opentable.com/img/restimages/3401.jpg", "name": "Signature Room at the 95th", "price": 4, "mobile_reserve_url": "http://mobile.opentable.com/opentable/?restId=3401", "id": 3401, "country": "US", "phone": "3127879596x", "lat": 41.8987}, {"area": "Chicago / Illinois", "address": "2024 North Halsted St.", "state": "IL", "lng": -87.648811, "postal_code": "60614", "city": "Chicago", "reserve_url": "http://www.opentable.com/single.aspx?rid=1162", "image_url": "https://www.opentable.com/img/restimages/1162.jpg", "name": "Caf\u00e9 Ba-Ba-Reeba", "price": 2, "mobile_reserve_url": "http://mobile.opentable.com/opentable/?restId=1162", "id": 1162, "country": "US", "phone": "7739355000x", "lat": 41.918677}, {"area": "Chicago / Illinois", "address": "1147 W Grand Ave", "state": "IL", "lng": -87.656439, "postal_code": "60642", "city": "Chicago", "reserve_url": "http://www.opentable.com/single.aspx?rid=145783", "image_url": "https://www.opentable.com/img/restimages/145783.jpg", "name": "Gaud\u00ed Caf\u00e9", "price": 2, "mobile_reserve_url": "http://mobile.opentable.com/opentable/?restId=145783", "id": 145783, "country": "US", "phone": "3127339528x", "lat": 41.890772}, {"area": "Chicago / Illinois", "address": "3868 N Lincoln", "state": "IL", "lng": -87.677, "postal_code": "60613", "city": "Chicago", "reserve_url": "http://www.opentable.com/single.aspx?rid=5822", "image_url": "https://www.opentable.com/img/restimages/5822.jpg", "name": "Sola", "price": 2, "mobile_reserve_url": "http://mobile.opentable.com/opentable/?restId=5822", "id": 5822, "country": "US", "phone": "7733273868", "lat": 41.952}, {"area": "Chicago / Illinois", "address": "2656 W Lawrence Ave", "state": "IL", "lng": -87.695971, "postal_code": "60625", "city": "Chicago", "reserve_url": "http://www.opentable.com/single.aspx?rid=71881", "image_url": "https://www.opentable.com/img/restimages/71881.jpg", "name": "goosefoot", "price": 4, "mobile_reserve_url": "http://mobile.opentable.com/opentable/?restId=71881", "id": 71881, "country": "US", "phone": "7739427547x", "lat": 41.96858}, {"area": "Chicago / Illinois", "address": "2957 W. Diversey Ave", "state": "IL", "lng": -87.702288, "postal_code": "60647", "city": "Chicago", "reserve_url": "http://www.opentable.com/single.aspx?rid=150433", "image_url": "https://www.opentable.com/img/restimages/150433.jpg", "name": "Fat Rice", "price": 2, "mobile_reserve_url": "http://mobile.opentable.com/opentable/?restId=150433", "id": 150433, "country": "US", "phone": "7736619170x", "lat": 41.931925}, {"area": "Chicago / Illinois", "address": "3755 N Southport", "state": "IL", "lng": -87.663831, "postal_code": "60613", "city": "Chicago", "reserve_url": "http://www.opentable.com/single.aspx?rid=150607", "image_url": "https://www.opentable.com/img/restimages/150607.jpg", "name": "Spencer's Jolly Posh Foods", "price": 2, "mobile_reserve_url": "http://mobile.opentable.com/opentable/?restId=150607", "id": 150607, "country": "US", "phone": "8728023840x", "lat": 41.950555}, {"area": "Chicago / Illinois", "address": "100 E. Chestnut Street", "state": "IL", "lng": -87.6256, "postal_code": "60611", "city": "Chicago", "reserve_url": "http://www.opentable.com/single.aspx?rid=2448", "image_url": "https://www.opentable.com/img/restimages/2448.jpg", "name": "Ditka's - Chicago", "price": 3, "mobile_reserve_url": "http://mobile.opentable.com/opentable/?restId=2448", "id": 2448, "country": "US", "phone": "3125878989x", "lat": 41.8983}, {"area": "Chicago / Illinois", "address": "Conrad Chicago", "state": "IL", "lng": -87.625365, "postal_code": "60611", "city": "Chicago", "reserve_url": "http://www.opentable.com/single.aspx?rid=6650", "image_url": "https://www.opentable.com/img/restimages/6650.jpg", "name": "The Terrace Rooftop  Bar  Restaurant", "price": 3, "mobile_reserve_url": "http://mobile.opentable.com/opentable/?restId=6650", "id": 6650, "country": "US", "phone": "3123770979x", "lat": 41.891256}, {"area": "Chicago / Illinois", "address": "5316 N Clark Street", "state": "IL", "lng": -87.668256, "postal_code": "60640", "city": "Chicago", "reserve_url": "http://www.opentable.com/single.aspx?rid=16765", "image_url": "https://www.opentable.com/img/restimages/16765.jpg", "name": "Anteprima", "price": 3, "mobile_reserve_url": "http://mobile.opentable.com/opentable/?restId=16765", "id": 16765, "country": "US", "phone": "7735069990x", "lat": 41.978411}, {"area": "Chicago / Illinois", "address": "1028 North Rush", "state": "IL", "lng": -87.628244, "postal_code": "60611", "city": "Chicago", "reserve_url": "http://www.opentable.com/single.aspx?rid=1842", "image_url": "https://www.opentable.com/img/restimages/1842.jpg", "name": "Gibsons Bar & Steakhouse - Chicago", "price": 4, "mobile_reserve_url": "http://mobile.opentable.com/opentable/?restId=1842", "id": 1842, "country": "US", "phone": "3122668999", "lat": 41.90168}, {"area": "Chicago / Illinois", "address": "51 W. Hubbard", "state": "IL", "lng": -87.630093, "postal_code": "60654", "city": "Chicago", "reserve_url": "http://www.opentable.com/single.aspx?rid=23299", "image_url": "https://www.opentable.com/img/restimages/23299.jpg", "name": "HUB 51", "price": 2, "mobile_reserve_url": "http://mobile.opentable.com/opentable/?restId=23299", "id": 23299, "country": "US", "phone": "3128280051x", "lat": 41.889798}, {"area": "Chicago / Illinois", "address": "2300 N. Lincoln Park West", "state": "IL", "lng": -87.636973, "postal_code": "60614", "city": "Chicago", "reserve_url": "http://www.opentable.com/single.aspx?rid=20989", "image_url": "https://www.opentable.com/img/restimages/20989.jpg", "name": "L2O", "price": 4, "mobile_reserve_url": "http://mobile.opentable.com/opentable/?restId=20989", "id": 20989, "country": "US", "phone": "7738680002x", "lat": 41.924091}, {"area": "Chicago / Illinois", "address": "1531 N Wells Street", "state": "IL", "lng": -87.634223, "postal_code": "60610", "city": "Chicago", "reserve_url": "http://www.opentable.com/single.aspx?rid=2323", "image_url": "https://www.opentable.com/img/restimages/2323.jpg", "name": "Kamehachi of Tokyo - Wells Street", "price": 2, "mobile_reserve_url": "http://mobile.opentable.com/opentable/?restId=2323", "id": 2323, "country": "US", "phone": "3126643663", "lat": 41.910041}, {"area": "Chicago / Illinois", "address": "115 E Chicago Ave", "state": "IL", "lng": -87.625166, "postal_code": "60611", "city": "Chicago", "reserve_url": "http://www.opentable.com/single.aspx?rid=2092", "image_url": "https://www.opentable.com/img/restimages/2092.jpg", "name": "RL Restaurant", "price": 3, "mobile_reserve_url": "http://mobile.opentable.com/opentable/?restId=2092", "id": 2092, "country": "US", "phone": "3124751100", "lat": 41.896563}, {"area": "Chicago / Illinois", "address": "160 W. Adams Street", "state": "IL", "lng": -87.632668, "postal_code": "60603", "city": "Chicago", "reserve_url": "http://www.opentable.com/single.aspx?rid=22804", "image_url": "https://www.opentable.com/img/restimages/22804.jpg", "name": "AraOn", "price": 2, "mobile_reserve_url": "http://mobile.opentable.com/opentable/?restId=22804", "id": 22804, "country": "US", "phone": "3127817300", "lat": 41.879736}, {"area": "Chicago / Illinois", "address": "441 North Clark Street", "state": "IL", "lng": -87.63079, "postal_code": "60654", "city": "Chicago", "reserve_url": "http://www.opentable.com/single.aspx?rid=117958", "image_url": "https://www.opentable.com/img/restimages/117958.jpg", "name": "Bottlefork", "price": 2, "mobile_reserve_url": "http://mobile.opentable.com/opentable/?restId=117958", "id": 117958, "country": "US", "phone": "3129551900x", "lat": 41.890438}, {"area": "Chicago / Illinois", "address": "2925 N Halsted St", "state": "IL", "lng": -87.649099, "postal_code": "60657", "city": "Chicago", "reserve_url": "http://www.opentable.com/single.aspx?rid=107047", "image_url": "https://www.opentable.com/img/restimages/107047.jpg", "name": "Macku Signature", "price": 3, "mobile_reserve_url": "http://mobile.opentable.com/opentable/?restId=107047", "id": 107047, "country": "US", "phone": "7733608816x", "lat": 41.935593}, {"area": "Chicago / Illinois", "address": "224 North Michigan Ave", "state": "IL", "lng": -87.624614, "postal_code": "60601", "city": "Chicago", "reserve_url": "http://www.opentable.com/single.aspx?rid=91492", "image_url": "https://www.opentable.com/img/restimages/91492.jpg", "name": "Chuck's: A Kerry Simon Kitchen", "price": 2, "mobile_reserve_url": "http://mobile.opentable.com/opentable/?restId=91492", "id": 91492, "country": "US", "phone": "3123346700x", "lat": 41.886436}, {"area": "Chicago / Illinois", "address": "300 West Hubbard", "state": "IL", "lng": -87.635682, "postal_code": "60610", "city": "Chicago", "reserve_url": "http://www.opentable.com/single.aspx?rid=1004", "image_url": "https://www.opentable.com/img/restimages/1004.jpg", "name": "Coco Pazzo", "price": 3, "mobile_reserve_url": "http://mobile.opentable.com/opentable/?restId=1004", "id": 1004, "country": "US", "phone": "3128360900x", "lat": 41.890037}, {"area": "Chicago / Illinois", "address": "616 N Rush Street", "state": "IL", "lng": -87.62539, "postal_code": "60611", "city": "Chicago", "reserve_url": "http://www.opentable.com/single.aspx?rid=21979", "image_url": "https://www.opentable.com/img/restimages/21979.jpg", "name": "David Burke's Primehouse in the James Hotel", "price": 3, "mobile_reserve_url": "http://mobile.opentable.com/opentable/?restId=21979", "id": 21979, "country": "US", "phone": "3126606000x", "lat": 41.892946}, {"area": "Chicago / Illinois", "address": "311 North Sangamon", "state": "IL", "lng": -87.650677, "postal_code": "60607", "city": "Chicago", "reserve_url": "http://www.opentable.com/single.aspx?rid=139012", "image_url": "https://www.opentable.com/img/restimages/139012.jpg", "name": "Fulton Market Kitchen", "price": 3, "mobile_reserve_url": "http://mobile.opentable.com/opentable/?restId=139012", "id": 139012, "country": "US", "phone": "3127336900x", "lat": 41.887184}, {"area": "Chicago / Illinois", "address": "415 North Dearborn Street", "state": "IL", "lng": -87.629572, "postal_code": "60654", "city": "Chicago", "reserve_url": "http://www.opentable.com/single.aspx?rid=11725", "image_url": "https://www.opentable.com/img/restimages/11725.jpg", "name": "Sullivan's Steakhouse - Chicago", "price": 3, "mobile_reserve_url": "http://mobile.opentable.com/opentable/?restId=11725", "id": 11725, "country": "US", "phone": "3125273510x", "lat": 41.889706}, {"area": "Chicago / Illinois", "address": "2233 S Martin Luther King Drive", "state": "IL", "lng": -87.620661, "postal_code": "60601", "city": "Chicago", "reserve_url": "http://www.opentable.com/single.aspx?rid=14044", "image_url": "https://www.opentable.com/img/restimages/14044.jpg", "name": "Shor Restaurant \u2013 Hyatt Regency \u2013 McCormick", "price": 3, "mobile_reserve_url": "http://mobile.opentable.com/opentable/?restId=14044", "id": 14044, "country": "US", "phone": "3125284140", "lat": 41.853328}, {"area": "Chicago / Illinois", "address": "500 North Kingsbury Street", "state": "IL", "lng": -87.639264, "postal_code": "60654", "city": "Chicago", "reserve_url": "http://www.opentable.com/single.aspx?rid=30226", "image_url": "https://www.opentable.com/img/restimages/30226.jpg", "name": "East Bank Club- Maxwell's at the Club", "price": 2, "mobile_reserve_url": "http://mobile.opentable.com/opentable/?restId=30226", "id": 30226, "country": "US", "phone": "(312) 527-5800x301", "lat": 41.890731}, {"area": "Chicago / Illinois", "address": "1028 N. Clark St", "state": "IL", "lng": -87.631545, "postal_code": "60610", "city": "Chicago", "reserve_url": "http://www.opentable.com/single.aspx?rid=112834", "image_url": "https://www.opentable.com/img/restimages/112834.jpg", "name": "Vora", "price": 2, "mobile_reserve_url": "http://mobile.opentable.com/opentable/?restId=112834", "id": 112834, "country": "US", "phone": "3129292035x", "lat": 41.901531}, {"area": "Chicago / Illinois", "address": "1200 West Randolph Street", "state": "IL", "lng": -87.656973, "postal_code": "60607", "city": "Chicago", "reserve_url": "http://www.opentable.com/single.aspx?rid=98347", "image_url": "https://www.opentable.com/img/restimages/98347.jpg", "name": "City Winery - Chicago", "price": 3, "mobile_reserve_url": "http://mobile.opentable.com/opentable/?restId=98347", "id": 98347, "country": "US", "phone": "3122295992x", "lat": 41.884475}, {"area": "Chicago / Illinois", "address": "505 North State Street", "state": "IL", "lng": -87.628025, "postal_code": "60654", "city": "Chicago", "reserve_url": "http://www.opentable.com/single.aspx?rid=41947", "image_url": "https://www.opentable.com/img/restimages/41947.jpg", "name": "Sable Kitchen & Bar", "price": 3, "mobile_reserve_url": "http://mobile.opentable.com/opentable/?restId=41947", "id": 41947, "country": "US", "phone": "3127559704x", "lat": 41.891017}, {"area": "Chicago / Illinois", "address": "455 W North Ave", "state": "IL", "lng": -87.640812, "postal_code": "60610", "city": "Chicago", "reserve_url": "http://www.opentable.com/single.aspx?rid=101758", "image_url": "https://www.opentable.com/img/restimages/101758.jpg", "name": "Old Town Social", "price": 2, "mobile_reserve_url": "http://mobile.opentable.com/opentable/?restId=101758", "id": 101758, "country": "US", "phone": "3122662277", "lat": 41.91094}, {"area": "Chicago / Illinois", "address": "358 W Ontario St, 1-B", "state": "IL", "lng": -87.638226, "postal_code": "60654", "city": "Chicago", "reserve_url": "http://www.opentable.com/single.aspx?rid=110926", "image_url": "https://www.opentable.com/img/restimages/110926.jpg", "name": "Nouveau Tavern", "price": 3, "mobile_reserve_url": "http://mobile.opentable.com/opentable/?restId=110926", "id": 110926, "country": "US", "phone": "3129154100x", "lat": 41.893381}, {"area": "Chicago / Illinois", "address": "2240-42 W Devon", "state": "IL", "lng": -87.686607, "postal_code": "60659", "city": "Chicago", "reserve_url": "http://www.opentable.com/single.aspx?rid=95128", "image_url": "https://www.opentable.com/img/restimages/95128.jpg", "name": "Chopal Kabab & Steak", "price": 2, "mobile_reserve_url": "http://mobile.opentable.com/opentable/?restId=95128", "id": 95128, "country": "US", "phone": "7733384080", "lat": 41.998023}, {"area": "Chicago / Illinois", "address": "15 East Huron Street", "state": "IL", "lng": -87.627263, "postal_code": "60611", "city": "Chicago", "reserve_url": "http://www.opentable.com/single.aspx?rid=109567", "image_url": "https://www.opentable.com/img/restimages/109567.jpg", "name": "ikram cafe", "price": 2, "mobile_reserve_url": "http://mobile.opentable.com/opentable/?restId=109567", "id": 109567, "country": "US", "phone": "3125871000", "lat": 41.894779}, {"area": "Chicago / Illinois", "address": "333 East Randolph St", "state": "IL", "lng": -87.619487, "postal_code": "60601", "city": "Chicago", "reserve_url": "http://www.opentable.com/single.aspx?rid=137149", "image_url": "https://www.opentable.com/img/restimages/137149.jpg", "name": "Yum Cha", "price": 3, "mobile_reserve_url": "http://mobile.opentable.com/opentable/?restId=137149", "id": 137149, "country": "US", "phone": "3129468885x", "lat": 41.884316}, {"area": "Chicago / Illinois", "address": "330 N Wabash Ave", "state": "IL", "lng": -87.627258, "postal_code": "60611", "city": "Chicago", "reserve_url": "http://www.opentable.com/single.aspx?rid=109561", "image_url": "https://www.opentable.com/img/restimages/109561.jpg", "name": "Pavilion - The Langham, Chicago", "price": 3, "mobile_reserve_url": "http://mobile.opentable.com/opentable/?restId=109561", "id": 109561, "country": "US", "phone": "3129237710x", "lat": 41.888564}, {"area": "Chicago / Illinois", "address": "1462 E. 53rd Street", "state": "IL", "lng": -87.589857, "postal_code": "60615", "city": "Chicago", "reserve_url": "http://www.opentable.com/single.aspx?rid=114625", "image_url": "https://www.opentable.com/img/restimages/114625.jpg", "name": "A10 Hyde Park", "price": 2, "mobile_reserve_url": "http://mobile.opentable.com/opentable/?restId=114625", "id": 114625, "country": "US", "phone": "7732881010x", "lat": 41.799525}, {"area": "Chicago / Illinois", "address": "3056 Lincoln Ave.", "state": "IL", "lng": -87.665649, "postal_code": "60657", "city": "Chicago", "reserve_url": "http://www.opentable.com/single.aspx?rid=136327", "image_url": "https://www.opentable.com/img/restimages/136327.jpg", "name": "Ani", "price": 3, "mobile_reserve_url": "http://mobile.opentable.com/opentable/?restId=136327", "id": 136327, "country": "US", "phone": "8722068553x", "lat": 41.937143}, {"area": "Chicago / Illinois", "address": "2039 West North Avenue", "state": "IL", "lng": -87.678988, "postal_code": "60647", "city": "Chicago", "reserve_url": "http://www.opentable.com/single.aspx?rid=89845", "image_url": "https://www.opentable.com/img/restimages/89845.jpg", "name": "Trenchermen", "price": 2, "mobile_reserve_url": "http://mobile.opentable.com/opentable/?restId=89845", "id": 89845, "country": "US", "phone": "7736611540x", "lat": 41.91039}, {"area": "Chicago / Illinois", "address": "110 East Pearson", "state": "IL", "lng": -87.625147, "postal_code": "60611", "city": "Chicago", "reserve_url": "http://www.opentable.com/single.aspx?rid=81271", "image_url": "https://www.opentable.com/img/restimages/81271.jpg", "name": "Bar Toma", "price": 2, "mobile_reserve_url": "http://mobile.opentable.com/opentable/?restId=81271", "id": 81271, "country": "US", "phone": "3122663110x", "lat": 41.897694}, {"area": "Chicago / Illinois", "address": "59 W. Grand Ave", "state": "IL", "lng": -87.630365, "postal_code": "63277", "city": "Chicago", "reserve_url": "http://www.opentable.com/single.aspx?rid=63277", "image_url": "https://www.opentable.com/img/restimages/63277.jpg", "name": "India House, Chicago", "price": 2, "mobile_reserve_url": "http://mobile.opentable.com/opentable/?restId=63277", "id": 63277, "country": "US", "phone": "3126459500", "lat": 41.891622}, {"area": "Chicago / Illinois", "address": "1419 N. Wells St", "state": "IL", "lng": -87.634163, "postal_code": "60610", "city": "Chicago", "reserve_url": "http://www.opentable.com/single.aspx?rid=82570", "image_url": "https://www.opentable.com/img/restimages/82570.jpg", "name": "Old Town Pour House", "price": 2, "mobile_reserve_url": "http://mobile.opentable.com/opentable/?restId=82570", "id": 82570, "country": "US", "phone": "3124772800x", "lat": 41.908183}, {"area": "Chicago / Illinois", "address": "52 West Elm Street", "state": "IL", "lng": -87.63038, "postal_code": "60610", "city": "Chicago", "reserve_url": "http://www.opentable.com/single.aspx?rid=30163", "image_url": "https://www.opentable.com/img/restimages/30163.jpg", "name": "Table Fifty-Two", "price": 3, "mobile_reserve_url": "http://mobile.opentable.com/opentable/?restId=30163", "id": 30163, "country": "US", "phone": "3125734000x", "lat": 41.903138}, {"area": "Chicago / Illinois", "address": "2523 N. Milwaukee Ave", "state": "IL", "lng": -87.704113, "postal_code": "60647", "city": "Chicago", "reserve_url": "http://www.opentable.com/single.aspx?rid=148738", "image_url": "https://www.opentable.com/img/restimages/148738.jpg", "name": "Analogue", "price": 2, "mobile_reserve_url": "http://mobile.opentable.com/opentable/?restId=148738", "id": 148738, "country": "US", "phone": "7739048567x", "lat": 41.927324}, {"area": "Chicago / Illinois", "address": "331 W. Superior", "state": "IL", "lng": -87.636983, "postal_code": "60654", "city": "Chicago", "reserve_url": "http://www.opentable.com/single.aspx?rid=64945", "image_url": "https://www.opentable.com/img/restimages/64945.jpg", "name": "Club Lago Restaurant", "price": 2, "mobile_reserve_url": "http://mobile.opentable.com/opentable/?restId=64945", "id": 64945, "country": "US", "phone": "3129512849", "lat": 41.895296}, {"area": "Chicago / Illinois", "address": "1209 N Noble Street (free parking)", "state": "IL", "lng": -87.662594, "postal_code": "60642", "city": "Chicago", "reserve_url": "http://www.opentable.com/single.aspx?rid=59935", "image_url": "https://www.opentable.com/img/restimages/59935.jpg", "name": "Blue Star Bistro & Wine Bar", "price": 2, "mobile_reserve_url": "http://mobile.opentable.com/opentable/?restId=59935", "id": 59935, "country": "US", "phone": "7732782233x", "lat": 41.90377}, {"area": "Chicago / Illinois", "address": "1030 N. State St", "state": "IL", "lng": -87.62888, "postal_code": "60610", "city": "Chicago", "reserve_url": "http://www.opentable.com/single.aspx?rid=112885", "image_url": "https://www.opentable.com/img/restimages/112885.jpg", "name": "Connie's Pizza in Gold Coast", "price": 2, "mobile_reserve_url": "http://mobile.opentable.com/opentable/?restId=112885", "id": 112885, "country": "US", "phone": "3123263443x", "lat": 41.901337}, {"area": "Chicago / Illinois", "address": "1011 W. Irving Park Rd", "state": "IL", "lng": -87.654956, "postal_code": "60613", "city": "Chicago", "reserve_url": "http://www.opentable.com/single.aspx?rid=110125", "image_url": "https://www.opentable.com/img/restimages/110125.jpg", "name": "Fornello Trattoria", "price": 2, "mobile_reserve_url": "http://mobile.opentable.com/opentable/?restId=110125", "id": 110125, "country": "US", "phone": "7734041800x", "lat": 41.954473}, {"area": "Chicago / Illinois", "address": "1344 W. Newport", "state": "IL", "lng": -87.663521, "postal_code": "60657", "city": "Chicago", "reserve_url": "http://www.opentable.com/single.aspx?rid=73690", "image_url": "https://www.opentable.com/img/restimages/73690.jpg", "name": "Newport Bar and Grill", "price": 2, "mobile_reserve_url": "http://mobile.opentable.com/opentable/?restId=73690", "id": 73690, "country": "US", "phone": "7733259111x", "lat": 41.944433}, {"area": "Chicago / Illinois", "address": "435 N Clark St", "state": "IL", "lng": -87.630945, "postal_code": "60654", "city": "Chicago", "reserve_url": "http://www.opentable.com/single.aspx?rid=100258", "image_url": "https://www.opentable.com/img/restimages/100258.jpg", "name": "Bub City", "price": 2, "mobile_reserve_url": "http://mobile.opentable.com/opentable/?restId=100258", "id": 100258, "country": "US", "phone": "312-610-4200x", "lat": 41.890351}, {"area": "Chicago / Illinois", "address": "6340 N Lincoln", "state": "IL", "lng": -87.717446, "postal_code": "60659", "city": "Chicago", "reserve_url": "http://www.opentable.com/single.aspx?rid=700", "image_url": "https://www.opentable.com/img/restimages/700.jpg", "name": "Via Veneto", "price": 2, "mobile_reserve_url": "http://mobile.opentable.com/opentable/?restId=700", "id": 700, "country": "US", "phone": "7732670888", "lat": 41.99639}, {"area": "Chicago / Illinois", "address": "1015 N Rush St", "state": "IL", "lng": -87.627429, "postal_code": "60611", "city": "Chicago", "reserve_url": "http://www.opentable.com/single.aspx?rid=115525", "image_url": "https://www.opentable.com/img/restimages/115525.jpg", "name": "Nico Osteria", "price": 4, "mobile_reserve_url": "http://mobile.opentable.com/opentable/?restId=115525", "id": 115525, "country": "US", "phone": "3129947100x", "lat": 41.901285}, {"area": "Chicago / Illinois", "address": "1039 West Bryn Mawr Avenue", "state": "IL", "lng": -87.656707, "postal_code": "60660", "city": "Chicago", "reserve_url": "http://www.opentable.com/single.aspx?rid=26737", "image_url": "https://www.opentable.com/img/restimages/26737.jpg", "name": "Francesca's Bryn Mawr", "price": 2, "mobile_reserve_url": "http://mobile.opentable.com/opentable/?restId=26737", "id": 26737, "country": "US", "phone": "7735069261x", "lat": 41.983629}, {"area": "Chicago / Illinois", "address": "16 W Maple St", "state": "IL", "lng": -87.628918, "postal_code": "60610", "city": "Chicago", "reserve_url": "http://www.opentable.com/single.aspx?rid=6382", "image_url": "https://www.opentable.com/img/restimages/6382.jpg", "name": "Merlo on Maple", "price": 4, "mobile_reserve_url": "http://mobile.opentable.com/opentable/?restId=6382", "id": 6382, "country": "US", "phone": "3123358200x", "lat": 41.901956}, {"area": "Chicago / Illinois", "address": "210 E. Ohio St", "state": "IL", "lng": -87.622345, "postal_code": "60611", "city": "Chicago", "reserve_url": "http://www.opentable.com/single.aspx?rid=47959", "image_url": "https://www.opentable.com/img/restimages/47959.jpg", "name": "Gyu-Kaku - Chicago", "price": 2, "mobile_reserve_url": "http://mobile.opentable.com/opentable/?restId=47959", "id": 47959, "country": "US", "phone": "3122668929", "lat": 41.892749}, {"area": "Chicago / Illinois", "address": "226 West Chicago Ave", "state": "IL", "lng": -87.63533, "postal_code": "60654", "city": "Chicago", "reserve_url": "http://www.opentable.com/single.aspx?rid=65644", "image_url": "https://www.opentable.com/img/restimages/65644.jpg", "name": "Bistro Voltaire", "price": 2, "mobile_reserve_url": "http://mobile.opentable.com/opentable/?restId=65644", "id": 65644, "country": "US", "phone": "3122650911x", "lat": 41.896606}, {"area": "Chicago / Illinois", "address": "247 E Ontario", "state": "IL", "lng": -87.621588, "postal_code": "60611", "city": "Chicago", "reserve_url": "http://www.opentable.com/single.aspx?rid=8030", "image_url": "https://www.opentable.com/img/restimages/8030.jpg", "name": "The Indian Garden - Chicago", "price": 2, "mobile_reserve_url": "http://mobile.opentable.com/opentable/?restId=8030", "id": 8030, "country": "US", "phone": "3122804910", "lat": 41.893353}, {"area": "Chicago / Illinois", "address": "328 S Jefferson", "state": "IL", "lng": -87.642755, "postal_code": "60661", "city": "Chicago", "reserve_url": "http://www.opentable.com/single.aspx?rid=156895", "image_url": "https://www.opentable.com/img/restimages/156895.jpg", "name": "Paola's Vinum", "price": 2, "mobile_reserve_url": "http://mobile.opentable.com/opentable/?restId=156895", "id": 156895, "country": "US", "phone": "3127759311x", "lat": 41.877132}, {"area": "Chicago / Illinois", "address": "1032 W. Lake St.", "state": "IL", "lng": -87.653505, "postal_code": "60607", "city": "Chicago", "reserve_url": "http://www.opentable.com/single.aspx?rid=146662", "image_url": "https://www.opentable.com/img/restimages/146662.jpg", "name": "Baba Pita", "price": 2, "mobile_reserve_url": "http://mobile.opentable.com/opentable/?restId=146662", "id": 146662, "country": "US", "phone": "3122433439", "lat": 41.8858}, {"area": "Chicago / Illinois", "address": "1154 W. Taylor St.", "state": "IL", "lng": -87.655827, "postal_code": "60607", "city": "Chicago", "reserve_url": "http://www.opentable.com/single.aspx?rid=158", "image_url": "https://www.opentable.com/img/restimages/158.jpg", "name": "RoSal's", "price": 2, "mobile_reserve_url": "http://mobile.opentable.com/opentable/?restId=158", "id": 158, "country": "US", "phone": "3122432357x", "lat": 41.869637}, {"area": "Chicago / Illinois", "address": "1530 S. State Street", "state": "IL", "lng": -87.627319, "postal_code": "60605", "city": "Chicago", "reserve_url": "http://www.opentable.com/single.aspx?rid=28198", "image_url": "https://www.opentable.com/img/restimages/28198.jpg", "name": "Tapas Valencia", "price": 2, "mobile_reserve_url": "http://mobile.opentable.com/opentable/?restId=28198", "id": 28198, "country": "US", "phone": "3128424444", "lat": 41.861048}, {"area": "Chicago / Illinois", "address": "676 North Saint Clair Street", "state": "IL", "lng": -87.622937, "postal_code": "60611", "city": "Chicago", "reserve_url": "http://www.opentable.com/single.aspx?rid=168", "image_url": "https://www.opentable.com/img/restimages/168.jpg", "name": "TRU", "price": 4, "mobile_reserve_url": "http://mobile.opentable.com/opentable/?restId=168", "id": 168, "country": "US", "phone": "3122020001x", "lat": 41.894522}, {"area": "Chicago / Illinois", "address": "2507 Lincoln Ave", "state": "IL", "lng": -87.651411, "postal_code": "60614", "city": "Chicago", "reserve_url": "http://www.opentable.com/single.aspx?rid=55369", "image_url": "https://www.opentable.com/img/restimages/55369.jpg", "name": "Ringo Japanese Kitchen", "price": 2, "mobile_reserve_url": "http://mobile.opentable.com/opentable/?restId=55369", "id": 55369, "country": "US", "phone": "7732485788", "lat": 41.927478}, {"area": "Chicago / Illinois", "address": "1113 W. Randolph", "state": "IL", "lng": -87.654862, "postal_code": "60607", "city": "Chicago", "reserve_url": "http://www.opentable.com/single.aspx?rid=31237", "image_url": "https://www.opentable.com/img/restimages/31237.jpg", "name": "Packing House", "price": 2, "mobile_reserve_url": "http://mobile.opentable.com/opentable/?restId=31237", "id": 31237, "country": "US", "phone": "3129294787x", "lat": 41.883979}, {"area": "Chicago / Illinois", "address": "412 N Clark", "state": "IL", "lng": -87.631766, "postal_code": "60654", "city": "Chicago", "reserve_url": "http://www.opentable.com/single.aspx?rid=35425", "image_url": "https://www.opentable.com/img/restimages/35425.jpg", "name": "Havana", "price": 2, "mobile_reserve_url": "http://mobile.opentable.com/opentable/?restId=35425", "id": 35425, "country": "US", "phone": "3126441900", "lat": 41.889766}, {"area": "Chicago / Illinois", "address": "1828 W. Montrose", "state": "IL", "lng": -87.675116, "postal_code": "60613", "city": "Chicago", "reserve_url": "http://www.opentable.com/single.aspx?rid=67639", "image_url": "https://www.opentable.com/img/restimages/67639.jpg", "name": "Roong Petch", "price": 2, "mobile_reserve_url": "http://mobile.opentable.com/opentable/?restId=67639", "id": 67639, "country": "US", "phone": "7739890818", "lat": 41.961524}, {"area": "Chicago / Illinois", "address": "188 West Randolph", "state": "IL", "lng": -87.633607, "postal_code": "60601", "city": "Chicago", "reserve_url": "http://www.opentable.com/single.aspx?rid=144715", "image_url": "https://www.opentable.com/img/restimages/144715.jpg", "name": "Randolph Tavern", "price": 2, "mobile_reserve_url": "http://mobile.opentable.com/opentable/?restId=144715", "id": 144715, "country": "US", "phone": "3126833280", "lat": 41.884625}, {"area": "Chicago / Illinois", "address": "113-125 North Green Street", "state": "IL", "lng": -87.648281, "postal_code": "60607", "city": "Chicago", "reserve_url": "http://www.opentable.com/single.aspx?rid=151810", "image_url": "https://www.opentable.com/img/restimages/151810.jpg", "name": "Chicken Shop - Chicago", "price": 2, "mobile_reserve_url": "http://mobile.opentable.com/opentable/?restId=151810", "id": 151810, "country": "US", "phone": "312 754 6920x", "lat": 41.883746}, {"area": "Chicago / Illinois", "address": "2610 North Cannon Drive", "state": "IL", "lng": -87.6356, "postal_code": "60657", "city": "Chicago", "reserve_url": "http://www.opentable.com/single.aspx?rid=2796", "image_url": "https://www.opentable.com/img/restimages/2796.jpg", "name": "North Pond", "price": 4, "mobile_reserve_url": "http://mobile.opentable.com/opentable/?restId=2796", "id": 2796, "country": "US", "phone": "7734775845x", "lat": 41.9289}, {"area": "Chicago / Illinois", "address": "119 N Green St", "state": "IL", "lng": -87.648579, "postal_code": "60667", "city": "Chicago", "reserve_url": "http://www.opentable.com/single.aspx?rid=150208", "image_url": "https://www.opentable.com/img/restimages/150208.jpg", "name": "Pizza East - Chicago", "price": 2, "mobile_reserve_url": "http://mobile.opentable.com/opentable/?restId=150208", "id": 150208, "country": "US", "phone": "312 754 6920x", "lat": 41.883846}, {"area": "Chicago / Illinois", "address": "2706 W. Peterson", "state": "IL", "lng": -87.697353, "postal_code": "60659", "city": "Chicago", "reserve_url": "http://www.opentable.com/single.aspx?rid=145702", "image_url": "https://www.opentable.com/img/restimages/145702.jpg", "name": "Pride Sushi and Thai", "price": 2, "mobile_reserve_url": "http://mobile.opentable.com/opentable/?restId=145702", "id": 145702, "country": "US", "phone": "7733813354", "lat": 41.990712}, {"area": "Chicago / Illinois", "address": "945 W Fulton", "state": "IL", "lng": -87.651575, "postal_code": "60607", "city": "Chicago", "reserve_url": "http://www.opentable.com/single.aspx?rid=4510", "image_url": "https://www.opentable.com/img/restimages/4510.jpg", "name": "Moto Restaurant", "price": 4, "mobile_reserve_url": "http://mobile.opentable.com/opentable/?restId=4510", "id": 4510, "country": "US", "phone": "3124910058", "lat": 41.886738}, {"area": "Chicago / Illinois", "address": "1050 North State Street", "state": "IL", "lng": -87.6284, "postal_code": "60610", "city": "Chicago", "reserve_url": "http://www.opentable.com/single.aspx?rid=2519", "image_url": "https://www.opentable.com/img/restimages/2519.jpg", "name": "Morton's The Steakhouse - Chicago - The Original", "price": 4, "mobile_reserve_url": "http://mobile.opentable.com/opentable/?restId=2519", "id": 2519, "country": "US", "phone": "3122664820", "lat": 41.9012}, {"area": "Chicago / Illinois", "address": "24 South Michigan Ave", "state": "IL", "lng": -87.624453, "postal_code": "60603", "city": "Chicago", "reserve_url": "http://www.opentable.com/single.aspx?rid=10315", "image_url": "https://www.opentable.com/img/restimages/10315.jpg", "name": "The Gage", "price": 2, "mobile_reserve_url": "http://mobile.opentable.com/opentable/?restId=10315", "id": 10315, "country": "US", "phone": "3123724243", "lat": 41.88179}, {"area": "Chicago / Illinois", "address": "2056 N. Lincoln Park West", "state": "IL", "lng": -87.636439, "postal_code": "60614", "city": "Chicago", "reserve_url": "http://www.opentable.com/single.aspx?rid=46147", "image_url": "https://www.opentable.com/img/restimages/46147.jpg", "name": "R J Grunt's", "price": 2, "mobile_reserve_url": "http://mobile.opentable.com/opentable/?restId=46147", "id": 46147, "country": "US", "phone": "7739295363", "lat": 41.919495}, {"area": "Chicago / Illinois", "address": "42 E Superior St", "state": "IL", "lng": -87.626555, "postal_code": "60611", "city": "Chicago", "reserve_url": "http://www.opentable.com/single.aspx?rid=99931", "image_url": "https://www.opentable.com/img/restimages/99931.jpg", "name": "Sunny Side Up", "price": 2, "mobile_reserve_url": "http://mobile.opentable.com/opentable/?restId=99931", "id": 99931, "country": "US", "phone": "3129304242", "lat": 41.895933}, {"area": "Chicago / Illinois", "address": "1924 S State Street", "state": "IL", "lng": -87.627173, "postal_code": "60616", "city": "Chicago", "reserve_url": "http://www.opentable.com/single.aspx?rid=13432", "image_url": "https://www.opentable.com/img/restimages/13432.jpg", "name": "Caf\u00e9 Bionda", "price": 2, "mobile_reserve_url": "http://mobile.opentable.com/opentable/?restId=13432", "id": 13432, "country": "US", "phone": "3123269800x", "lat": 41.856379}, {"area": "Chicago / Illinois", "address": "225 N. Wabash Ave.", "state": "IL", "lng": -87.626115, "postal_code": "60601", "city": "Chicago", "reserve_url": "http://www.opentable.com/single.aspx?rid=138", "image_url": "https://www.opentable.com/img/restimages/138.jpg", "name": "South Water Kitchen", "price": 2, "mobile_reserve_url": "http://mobile.opentable.com/opentable/?restId=138", "id": 138, "country": "US", "phone": "3122369300x", "lat": 41.886052}, {"area": "Chicago / Illinois", "address": "3800 North Clark Street", "state": "IL", "lng": -87.659859, "postal_code": "60613", "city": "Chicago", "reserve_url": "http://www.opentable.com/single.aspx?rid=150811", "image_url": "https://www.opentable.com/img/restimages/150811.jpg", "name": "Uncommon Ground-Lakeview", "price": 2, "mobile_reserve_url": "http://mobile.opentable.com/opentable/?restId=150811", "id": 150811, "country": "US", "phone": "7739293680x", "lat": 41.95119}, {"area": "Chicago / Illinois", "address": "66 West Kinzie St", "state": "IL", "lng": -87.6304, "postal_code": "60654", "city": "Chicago", "reserve_url": "http://www.opentable.com/single.aspx?rid=144913", "image_url": "https://www.opentable.com/img/restimages/144913.jpg", "name": "RPM Steak", "price": 4, "mobile_reserve_url": "http://mobile.opentable.com/opentable/?restId=144913", "id": 144913, "country": "US", "phone": "3122844990x", "lat": 41.889238}, {"area": "Chicago / Illinois", "address": "65 East Wacker Place", "state": "IL", "lng": -87.625604, "postal_code": "60601", "city": "Chicago", "reserve_url": "http://www.opentable.com/single.aspx?rid=3929", "image_url": "https://www.opentable.com/img/restimages/3929.jpg", "name": "Morton's The Steakhouse - Chicago - Wacker Place", "price": 4, "mobile_reserve_url": "http://mobile.opentable.com/opentable/?restId=3929", "id": 3929, "country": "US", "phone": "3122010410x", "lat": 41.886766}, {"area": "Chicago / Illinois", "address": "401 N. Wabash", "state": "IL", "lng": -87.626714, "postal_code": "60611", "city": "Chicago", "reserve_url": "http://www.opentable.com/single.aspx?rid=19900", "image_url": "https://www.opentable.com/img/restimages/19900.jpg", "name": "Sixteen", "price": 4, "mobile_reserve_url": "http://mobile.opentable.com/opentable/?restId=19900", "id": 19900, "country": "US", "phone": "3125888030x", "lat": 41.889526}, {"area": "Chicago / Illinois", "address": "301 East North Water St.", "state": "IL", "lng": -87.620221, "postal_code": "60611", "city": "Chicago", "reserve_url": "http://www.opentable.com/single.aspx?rid=2076", "image_url": "https://www.opentable.com/img/restimages/2076.jpg", "name": "Shula's Steak House - Chicago", "price": 3, "mobile_reserve_url": "http://mobile.opentable.com/opentable/?restId=2076", "id": 2076, "country": "US", "phone": "3126700788", "lat": 41.889338}, {"area": "Chicago / Illinois", "address": "3524 N. Clark Street", "state": "IL", "lng": -87.655872, "postal_code": "60657", "city": "Chicago", "reserve_url": "http://www.opentable.com/single.aspx?rid=145651", "image_url": "https://www.opentable.com/img/restimages/145651.jpg", "name": "John Barleycorn Wrigleyville", "price": 2, "mobile_reserve_url": "http://mobile.opentable.com/opentable/?restId=145651", "id": 145651, "country": "US", "phone": "7735496000", "lat": 41.946233}, {"area": "Chicago / Illinois", "address": "939 N Ashland", "state": "IL", "lng": -87.666989, "postal_code": "60622", "city": "Chicago", "reserve_url": "http://www.opentable.com/single.aspx?rid=139000", "image_url": "https://www.opentable.com/img/restimages/139000.jpg", "name": "Rakki Kyu", "price": 2, "mobile_reserve_url": "http://mobile.opentable.com/opentable/?restId=139000", "id": 139000, "country": "US", "phone": "7737725985", "lat": 41.899109}, {"area": "Chicago / Illinois", "address": "127 W Huron", "state": "IL", "lng": -87.631962, "postal_code": "60654", "city": "Chicago", "reserve_url": "http://www.opentable.com/single.aspx?rid=148327", "image_url": "https://www.opentable.com/img/restimages/148327.jpg", "name": "IO Urban Roofscape \u2013 The Godfrey Chicago", "price": 2, "mobile_reserve_url": "http://mobile.opentable.com/opentable/?restId=148327", "id": 148327, "country": "US", "phone": "3126492000", "lat": 41.894585}, {"area": "Chicago / Illinois", "address": "4156 N. Kedzie", "state": "IL", "lng": -87.708462, "postal_code": "60618", "city": "Chicago", "reserve_url": "http://www.opentable.com/single.aspx?rid=70114", "image_url": "https://www.opentable.com/img/restimages/70114.jpg", "name": "Arun's", "price": 4, "mobile_reserve_url": "http://mobile.opentable.com/opentable/?restId=70114", "id": 70114, "country": "US", "phone": "7735391909", "lat": 41.957442}, {"area": "Chicago / Illinois", "address": "700 North Michigan Ave.", "state": "IL", "lng": -87.624687, "postal_code": "60611", "city": "Chicago", "reserve_url": "http://www.opentable.com/single.aspx?rid=117547", "image_url": "https://www.opentable.com/img/restimages/117547.jpg", "name": "Sophie's at Saks Fifth Avenue- Chicago", "price": 2, "mobile_reserve_url": "http://mobile.opentable.com/opentable/?restId=117547", "id": 117547, "country": "US", "phone": "3125253400x", "lat": 41.895233}, {"area": "Chicago / Illinois", "address": "216 N Wabash", "state": "IL", "lng": -87.626777, "postal_code": "60601", "city": "Chicago", "reserve_url": "http://www.opentable.com/single.aspx?rid=10147", "image_url": "https://www.opentable.com/img/restimages/10147.jpg", "name": "Emerald Loop Bar and Grill", "price": 2, "mobile_reserve_url": "http://mobile.opentable.com/opentable/?restId=10147", "id": 10147, "country": "US", "phone": "3122630200", "lat": 41.886511}, {"area": "Chicago / Illinois", "address": "58 East Oak Street", "state": "IL", "lng": -87.626343, "postal_code": "60611", "city": "Chicago", "reserve_url": "http://www.opentable.com/single.aspx?rid=88825", "image_url": "https://www.opentable.com/img/restimages/88825.jpg", "name": "Del Frisco's Double Eagle Steak House - Chicago", "price": 4, "mobile_reserve_url": "http://mobile.opentable.com/opentable/?restId=88825", "id": 88825, "country": "US", "phone": "3128882499x", "lat": 41.900842}, {"area": "Chicago / Illinois", "address": "1401 S. Michigan Ave", "state": "IL", "lng": -87.623806, "postal_code": "60605", "city": "Chicago", "reserve_url": "http://www.opentable.com/single.aspx?rid=1033", "image_url": "https://www.opentable.com/img/restimages/1033.jpg", "name": "Chicago Firehouse Restaurant", "price": 3, "mobile_reserve_url": "http://mobile.opentable.com/opentable/?restId=1033", "id": 1033, "country": "US", "phone": "3127861401", "lat": 41.863948}, {"area": "Chicago / Illinois", "address": "2300 N. Lincoln Park West", "state": "IL", "lng": -87.636783, "postal_code": "60614", "city": "Chicago", "reserve_url": "http://www.opentable.com/single.aspx?rid=489", "image_url": "https://www.opentable.com/img/restimages/489.jpg", "name": "Mon Ami Gabi", "price": 2, "mobile_reserve_url": "http://mobile.opentable.com/opentable/?restId=489", "id": 489, "country": "US", "phone": "773-348-8886x", "lat": 41.923937}, {"area": "Chicago / Illinois", "address": "837 W. Fulton Market", "state": "IL", "lng": -87.649241, "postal_code": "60607", "city": "Chicago", "reserve_url": "http://www.opentable.com/single.aspx?rid=27424", "image_url": "https://www.opentable.com/img/restimages/27424.jpg", "name": "The Publican", "price": 2, "mobile_reserve_url": "http://mobile.opentable.com/opentable/?restId=27424", "id": 27424, "country": "US", "phone": "3127339555", "lat": 41.88655}, {"area": "Chicago / Illinois", "address": "500 N. LaSalle St", "state": "IL", "lng": -87.632686, "postal_code": "60654", "city": "Chicago", "reserve_url": "http://www.opentable.com/single.aspx?rid=140887", "image_url": "https://www.opentable.com/img/restimages/140887.jpg", "name": "Gino's East", "price": 2, "mobile_reserve_url": "http://mobile.opentable.com/opentable/?restId=140887", "id": 140887, "country": "US", "phone": "3129884200", "lat": 41.890801}, {"area": "Chicago / Illinois", "address": "644 North Lake Shore Drive", "state": "IL", "lng": -87.615366, "postal_code": "60611", "city": "Chicago", "reserve_url": "http://www.opentable.com/single.aspx?rid=1805", "image_url": "https://www.opentable.com/img/restimages/1805.jpg", "name": "Current", "price": 2, "mobile_reserve_url": "http://mobile.opentable.com/opentable/?restId=1805", "id": 1805, "country": "US", "phone": "3122554460x", "lat": 41.893842}, {"area": "Chicago / Illinois", "address": "203 E. Ohio Street", "state": "IL", "lng": -87.622483, "postal_code": "60611", "city": "Chicago", "reserve_url": "http://www.opentable.com/single.aspx?rid=149731", "image_url": "https://www.opentable.com/img/restimages/149731.jpg", "name": "Waffles Cafe - Streeterville", "price": 2, "mobile_reserve_url": "http://mobile.opentable.com/opentable/?restId=149731", "id": 149731, "country": "US", "phone": "3128461242", "lat": 41.892546}, {"area": "Chicago / Illinois", "address": "151 West Adams Street", "state": "IL", "lng": -87.632432, "postal_code": "60604", "city": "Chicago", "reserve_url": "http://www.opentable.com/single.aspx?rid=51226", "image_url": "https://www.opentable.com/img/restimages/51226.jpg", "name": "The Florentine", "price": 4, "mobile_reserve_url": "http://mobile.opentable.com/opentable/?restId=51226", "id": 51226, "country": "US", "phone": "3126608866", "lat": 41.879017}, {"area": "Chicago / Illinois", "address": "888 South Michigan Ave", "state": "IL", "lng": -87.62471, "postal_code": "60605", "city": "Chicago", "reserve_url": "http://www.opentable.com/single.aspx?rid=147874", "image_url": "https://www.opentable.com/img/restimages/147874.jpg", "name": "Niu B Sushi & Robata - South Michigan Ave", "price": 2, "mobile_reserve_url": "http://mobile.opentable.com/opentable/?restId=147874", "id": 147874, "country": "US", "phone": "3129221127x", "lat": 41.870743}, {"area": "Chicago / Illinois", "address": "192 E Walton Street", "state": "IL", "lng": -87.622125, "postal_code": "60611", "city": "Chicago", "reserve_url": "http://www.opentable.com/single.aspx?rid=14557", "image_url": "https://www.opentable.com/img/restimages/14557.jpg", "name": "Rosebud Steakhouse", "price": 3, "mobile_reserve_url": "http://mobile.opentable.com/opentable/?restId=14557", "id": 14557, "country": "US", "phone": "3123971000x", "lat": 41.900031}, {"area": "Chicago / Illinois", "address": "2873 N Broadway St", "state": "IL", "lng": -87.644235, "postal_code": "60657", "city": "Chicago", "reserve_url": "http://www.opentable.com/single.aspx?rid=92104", "image_url": "https://www.opentable.com/img/restimages/92104.jpg", "name": "Senza", "price": 4, "mobile_reserve_url": "http://mobile.opentable.com/opentable/?restId=92104", "id": 92104, "country": "US", "phone": "7737703527x", "lat": 41.934949}, {"area": "Chicago / Illinois", "address": "160 N Franklin St", "state": "IL", "lng": -87.635693, "postal_code": "60654", "city": "Chicago", "reserve_url": "http://www.opentable.com/single.aspx?rid=118258", "image_url": "https://www.opentable.com/img/restimages/118258.jpg", "name": "Tradition", "price": 2, "mobile_reserve_url": "http://mobile.opentable.com/opentable/?restId=118258", "id": 118258, "country": "US", "phone": "3122630260x", "lat": 41.884909}, {"area": "Chicago / Illinois", "address": "636 N St Clair", "state": "IL", "lng": -87.6227, "postal_code": "60611", "city": "Chicago", "reserve_url": "http://www.opentable.com/single.aspx?rid=3656", "image_url": "https://www.opentable.com/img/restimages/3656.jpg", "name": "Coco Pazzo Caf\u00e9", "price": 2, "mobile_reserve_url": "http://mobile.opentable.com/opentable/?restId=3656", "id": 3656, "country": "US", "phone": "3126642777x", "lat": 41.8935}, {"area": "Chicago / Illinois", "address": "329 N. Dearborn", "state": "IL", "lng": -87.629431, "postal_code": "60654", "city": "Chicago", "reserve_url": "http://www.opentable.com/single.aspx?rid=39712", "image_url": "https://www.opentable.com/img/restimages/39712.jpg", "name": "Foundation Room House of Blues Chicago", "price": 4, "mobile_reserve_url": "http://mobile.opentable.com/opentable/?restId=39712", "id": 39712, "country": "US", "phone": "3129237050", "lat": 41.888098}, {"area": "Chicago / Illinois", "address": "980 North Michigan Ave", "state": "IL", "lng": -87.624383, "postal_code": "60611", "city": "Chicago", "reserve_url": "http://www.opentable.com/single.aspx?rid=2119", "image_url": "https://www.opentable.com/img/restimages/2119.jpg", "name": "Spiaggia", "price": 4, "mobile_reserve_url": "http://mobile.opentable.com/opentable/?restId=2119", "id": 2119, "country": "US", "phone": "3122802750x", "lat": 41.900523}, {"area": "Chicago / Illinois", "address": "505 North Lake Shore Drive (Navy Pier)", "state": "IL", "lng": -87.616111, "postal_code": "60611", "city": "Chicago", "reserve_url": "http://www.opentable.com/single.aspx?rid=1564", "image_url": "https://www.opentable.com/img/restimages/1564.jpg", "name": "Cite", "price": 4, "mobile_reserve_url": "http://mobile.opentable.com/opentable/?restId=1564", "id": 1564, "country": "US", "phone": "3126444050x", "lat": 41.896364}, {"area": "Chicago / Illinois", "address": "22 W. Hubbard", "state": "IL", "lng": -87.629377, "postal_code": "60610", "city": "Chicago", "reserve_url": "http://www.opentable.com/single.aspx?rid=22825", "image_url": "https://www.opentable.com/img/restimages/22825.jpg", "name": "Rockit Bar & Grill", "price": 2, "mobile_reserve_url": "http://mobile.opentable.com/opentable/?restId=22825", "id": 22825, "country": "US", "phone": "3126456000x", "lat": 41.890441}, {"area": "Chicago / Illinois", "address": "899 South Plymouth Ct", "state": "IL", "lng": -87.628092, "postal_code": "60605", "city": "Chicago", "reserve_url": "http://www.opentable.com/single.aspx?rid=34618", "image_url": "https://www.opentable.com/img/restimages/34618.jpg", "name": "Chicago Curry House (Indian and Nepalese Restaurant)", "price": 2, "mobile_reserve_url": "http://mobile.opentable.com/opentable/?restId=34618", "id": 34618, "country": "US", "phone": "3123629999", "lat": 41.870798}, {"area": "Chicago / Illinois", "address": "702 West Fulton Market", "state": "IL", "lng": -87.646018, "postal_code": "60661", "city": "Chicago", "reserve_url": "http://www.opentable.com/single.aspx?rid=25459", "image_url": "https://www.opentable.com/img/restimages/25459.jpg", "name": "Carnivale", "price": 2, "mobile_reserve_url": "http://mobile.opentable.com/opentable/?restId=25459", "id": 25459, "country": "US", "phone": "3128505005x", "lat": 41.886805}, {"area": "Chicago / Illinois", "address": "633 North Saint Clair", "state": "IL", "lng": -87.622615, "postal_code": "60611", "city": "Chicago", "reserve_url": "http://www.opentable.com/single.aspx?rid=425", "image_url": "https://www.opentable.com/img/restimages/425.jpg", "name": "Level Two", "price": 2, "mobile_reserve_url": "http://mobile.opentable.com/opentable/?restId=425", "id": 425, "country": "US", "phone": "3122744444x", "lat": 41.893591}, {"area": "Chicago / Illinois", "address": "1417 Fullerton Ave", "state": "IL", "lng": -87.664022, "postal_code": "60614", "city": "Chicago", "reserve_url": "http://www.opentable.com/single.aspx?rid=145990", "image_url": "https://www.opentable.com/img/restimages/145990.jpg", "name": "Knife & Tine", "price": 2, "mobile_reserve_url": "http://mobile.opentable.com/opentable/?restId=145990", "id": 145990, "country": "US", "phone": "7736978311x", "lat": 41.924936}, {"area": "Chicago / Illinois", "address": "1001 N Winchester", "state": "IL", "lng": -87.675569, "postal_code": "60622", "city": "Chicago", "reserve_url": "http://www.opentable.com/single.aspx?rid=145642", "image_url": "https://www.opentable.com/img/restimages/145642.jpg", "name": "The Winchester", "price": 2, "mobile_reserve_url": "http://mobile.opentable.com/opentable/?restId=145642", "id": 145642, "country": "US", "phone": "7736988703x", "lat": 41.899705}, {"area": "Chicago / Illinois", "address": "10 West Hubbard", "state": "IL", "lng": -87.628659, "postal_code": "60654", "city": "Chicago", "reserve_url": "http://www.opentable.com/single.aspx?rid=3654", "image_url": "https://www.opentable.com/img/restimages/3654.jpg", "name": "Vermilion", "price": 3, "mobile_reserve_url": "http://mobile.opentable.com/opentable/?restId=3654", "id": 3654, "country": "US", "phone": "3125274060x", "lat": 41.890094},